No.,Temple Name,Type,Temple Address,Villages,Districts,Regency,Province,Pos code,Latitude,Longitude
1,Air Penyejuk Jiwa/Tirta PadPad,,"Tianyar Barat, Kubu, Karangasem",Tianyar Barat,Kubu,Karangasem,Bali,80652,-8.205923,115.4461296
2,Air Terjun Pesucian Manggaan,,"Nongan, Rendang, Karangasem",Nongan,Nongan,Karangasem,Bali,80863,-8.4340686,115.415409
3,Alas Malang,Sanggah?,"Tempos, Gerung, Lombok Barat",Tempos,Gerung,Lombok Barat,NTB,83363,-8.7022856,116.1385612
4,Apit Lawang Desa Adat Pegubugan,,"Unnamed Road, Duda, Selat, Karangasem",Duda,Selat,Karangasem,Bali,80862,-8.4403041,115.4924531
5,Arya Jelantik Apuan,,"Jl. Desa Apuan, Apuan, Susut, Bangli",Apuan,Susut,Bangli,Bali,80661,-8.4798289,115.3306122
6,Arya Kanuruhan - Tangkas Kori Agung Banjar Keridan,,"Keridan, Senganan, Penebel, Tabanan",Senganan,Penebel,Tabanan,Bali,82191,-8.3782721,115.1670212
7,Arya Kenceng,,"Cepik, Tajen, Penebel, Tabanan",Tajen,Penebel,Tabanan,Bali,82181,-8.4572277,115.148056
8,Arya Kepakisan - Nyuh Aya Jungutbatu,,"Nusa Lembongan, Jungutbatu, Nusapenida, Klungkung",Jungutbatu,Nusa Penida,Klungkung,Bali,80771,-8.6786577,115.4484957
9,"Arya Pedharman Kanuruhan (Brangsinga, Tangkas Kori Agung, Pagatepan)",,"Pempatan, Rendang, Karangasem",Pempatan,Rendang,Karangasem,Bali,80863,-8.3735009,115.4541391
10,"Arya Pemecutan, Sri Kresna Kepakisan",,"Jagaraga, Sawan, Buleleng",Jagaraga,Sawan,Buleleng,Bali,81171,-8.1094179,115.1613066
11,Arya Sentong Tembuku,,"Tembuku, Bangli",0,Tembuku,Bangli,Bali,80671,-8.4275483,115.3848281
12,Arya Sukahet,,"Kubu, Bangli, Bangli",Kubu,Bangli,Bangli,Bali,80613,-8.4330288,115.3607966
13,Arya Tegeh Kori Munduk Bestala,,"Unnamed Road, Munduk Bestala, Seririt, Buleleng",Munduk Bestala,Seririt,Buleleng,Bali,81152,-8.24058,114.983268
14,Arya Wang Bang Pinatih,,"Jl. Puputan No.121, Tojan, Klungkung, Klungkung",Tojan,Klungkung,Klungkung,Bali,80716,-8.5496714,115.4025196
15,Ashram Amrtham Gauri,Ashram,"Ubud, Gianyar",Ubud,Ubud,Gianyar,Bali,80571,-8.5187495,115.2558725
16,Ashram Bhama Shanti,Ashram,"Jl. Raya Senganan, Senganan, Penebel, Tabanan",Senganan,Penebel,Tabanan,Bali,82191,-8.363767,115.1592359
17,Ashram Jalananda,Ashram,"Sesaot, Narmada, Lombok Barat",Sesaot,Narmada,Lombok Barat,NTB,83371,-8.5395991,116.2330506
18,Ashram Jaya Brahmni dusun Pengendan,Ashram,"Pelangan, Central Sekotong, Lombok Barat",Pelangan,Sekotong Tengah,Lombok Barat,NTB,83365,-8.8155791,115.9525533
19,Ashram Lombok Suranadi,Ashram,"Suranadi, Narmada, Lombok Barat",Suranadi,Narmada,Lombok Barat,NTB,83371,-8.5563664,116.2489289
20,Asih Widhi Dupa Ratu Niang,Sanggah?,"Apuan, Baturiti, Tabanan",Apuan,Baturiti,Tabanan,Bali,82191,-8.3725728,115.1780975
21,Pura Kawitan Arya Wang Bang Pinatih,Pura Kawitan,"Jl. Pengembungan, Pejeng Kangin, Tampaksiring, Gianyar",Pejeng Kangin,Tampaksiring,Gianyar,Bali,80552,-8.4750655,115.3027112
22,Badung peninggar,Pribadi,"Peninggar, Dusun Dungkap1, Batukandik, Nusapenida, Klungkung",Batukandik,Nusapenida,Klungkung,Bali,80771,-8.7666526,115.5436631
23,Balai Banjar Desa Gentong,Balai Banjar,"Jl. Raya Gentong, Tegallalang, Tegallalang, Gianyar",Tegallalang,Tegallalang,Gianyar,Bali,80561,-8.4825667,115.2777548
24,Balai Banjar Adat Kalot,Balai Banjar,"Jl. Gn. Agung, Muncan, Selat, Karangasem",Muncan,Selat,Karangasem,Bali,80862,-8.4358752,115.4494609
25,Balai Banjar Binyan,Balai Banjar,"Binyan, Kintamani, Bangli",Binyan,Kintamani,Bangli,Bali,0,-8.2729952,115.2633921
26,Balai Banjar Bujak,Balai Banjar,"Sepang Kelod, Busungbiu, Buleleng",Sepang Kelod,Busungbiu,Buleleng,Bali,81154,-8.3413029,114.9179306
27,Balai Banjar Desa Penarukan,Balai Banjar,"Peninjoan, Tembuku, Bangli",Peninjoan,Tembuku,Bangli,Bali,80671,-8.4131953,115.4056025
28,Balai Banjar Dinas Pakudansih,Balai Banjar,"Unnamed Road, Muncan, Selat, Karangasem",Muncan,Selat,Karangasem,Bali,80862,-8.4378498,115.4523069
29,"Balai Banjar Dukuh, Desa Pejaten",Balai Banjar,"Unnamed Road, Pejaten, Kediri, Tabanan",Pejaten,Kediri,Tabanan,Bali,82112,-8.5734862,115.1046674
30,Balai Banjar Gunung Sari,Balai Banjar,"Sepang Kelod, Busungbiu, Buleleng",Sepang Kelod,Busungbiu,Buleleng,Bali,81154,-8.3193501,114.896935
31,Balai Banjar Keden,Balai Banjar,"Jl. Raya Ketewel No.24, Ketewel, Sukawati, Gianyar",Ketewel,Sukawati,Gianyar,Bali,80582,-8.6288309,115.2888419
32,Balai Banjar Kedungu,Balai Banjar,"Jl. Pantai Kedungu No.99, Belalang, Kediri, Tabanan",Belalang,Kediri,Tabanan,Bali,82121,-8.6018242,115.0913313
33,Balai Banjar Pengayehan Desa Cemagi,Balai Banjar,"Jl. Sukunan No.2, Cemagi, Mengwi, Badung",Cemagi,Mengwi,Badung,Bali,80351,-8.6295065,115.1148796
34,Balai Banjar Sari Tengah,Balai Banjar,"Pancasari, Sukasada, Buleleng",Pancasari,Sukasada,Buleleng,Bali,81161,-8.2497396,115.149336
35,Balai Banjar Sinoman Galuh Mantri,Balai Banjar,"Jl. Raya Celuk No.11x, Celuk, Sukawati, Gianyar",Celuk,Sukawati,Gianyar,Bali,80582,-8.6005151,115.2719295
36,Balai Banjar Tangkup,Balai Banjar,"Bukian, Payangan, Gianyar",Bukian,Payangan,Gianyar,Bali,80572,-8.4293938,115.2512501
37,Balai Banjar Tanglad,Balai Banjar,"Tanglad, Nusapenida, Klungkung",Tanglad,Nusapenida,Klungkung,Bali,80771,-8.7736316,115.5833384
38,Balai Banjar Tengah Desa Buduk,Balai Banjar,"Jl. Tunon No.6, Buduk, Mengwi, Badung",Buduk,Mengwi,Badung,Bali,80351,-8.6048465,115.1630926
39,Balai Banjar Manuk,Balai Banjar,"Susut, Bangli",Susut,Susut,Bangli,Bali,80661,-8.4425763,115.3339054
40,Pura Subak Abian Mertha Sari,Pura Subak,"Mungsengan, Catur, Kintamani, Bangli",Catur,Kintamani,Bangli,Bali,80353,-8.2421766,115.2433483
41,Balai Santi Dharma Laksana Asah Badung,Balai Santi,"Sepang Kelod, Busungbiu, Buleleng",Sepang Kelod,Busungbiu,Buleleng,Bali,81154,-8.3301022,114.9064535
42,Balai Santi Babakan,Balai Santi,"Unnamed Road, Sepang Kelod, Busungbiu, Buleleng",Sepang Kelod,Busungbiu,Buleleng,Bali,81154,-8.3352584,114.8991441
43,Balai Santi Munduk Lantang,Balai Santi,"Sepang Kelod, Busungbiu, Buleleng",Sepang Kelod,Busungbiu,Buleleng,Bali,81154,-8.3302839,114.8991139
44,Pura Dalem Balangan,Pura Dalem,"Jl. Pantai Balangan, Jimbaran, Badung, Badung",Jimbaran,Badung,Badung,Bali,80361,-8.791394,115.1243253
45,Balai Banjar ambengan linggah,Balai Banjar,"Sakti, Nusapenida, Klungkung",Sakti,Nusapenida,Klungkung,Bali,80771,-8.6905299,115.4907767
46,Balai Banjar Jasri,Balai Banjar,"Tri Eka Buana, Sidemen, Karangasem",Tri Eka Buana,Sidemen,Karangasem,Bali,80864,-8.4951262,115.4494261
47,Balai Banjar Kedewatan Anyar,Balai Banjar,"Jl. Kedewatan, Kedewatan, Ubud, Gianyar",Kedewatan,Ubud,Gianyar,Bali,80571,-8.4938263,115.2451621
48,Balai Banjar Lepa,Balai Banjar,"Batumadeg, Nusapenida, Klungkung",Batumadeg,Nusapenida,Klungkung,Bali,80771,-8.7458304,115.5068133
49,Balai Banjar Lumbuan,Balai Banjar,"Banjar Dinas Lumbuan, Sulahan, Susut, Bangli",Sulahan,Susut,Bangli,Bali,80661,-8.4079064,115.3477411
50,Balai Banjar Ulundesa,Balai Banjar,"No., Jl. Tanah Lot No.15, Beraban, Kediri, Tabanan",Beraban,Kediri,Tabanan,Bali,82121,-8.5961606,115.1078414
51,Balai Sanghyang,,"Seraya, Karangasem, Karangasem",Seraya,Karangasem,Karangasem,Bali,80811,-8.4318127,115.6556823
52,Balai Subak Abian Tri Loka Phala Seraya,Subak Abian,"Banjar Dinas Batugunung, Karangsem, Bukit, Karangasem, Karangasem",Bukit,Karangasem,Karangasem,Bali,80852,-8.4077266,115.6400547
53,Balaijajar Desa Selumbung,,"Jl. Raya Selumbung, Selumbung, Manggis, Karangasem",Selumbung,Manggis,Karangasem,Bali,80871,-8.4708127,115.5380791
54,Bali Rice Temple,Sanggah?,"Ubud, Gianyar",0,Ubud,Gianyar,Bali,80571,-8.4922681,115.2626729
55,Bali Temple process coconut oil,Sanggah?,"Jl. Sesandan, Megati, Selemadeg Timur, Tabanan",Megati,Selemadeg Timur,Tabanan,Bali,82162,-8.4654165,115.054154
56,"Bandem Balairan, Ungasan, Kuta Selatan Badung Bali",Sanggah?,"Ungasan, South Kuta, Badung",South Kuta,0,Badung,Bali,80361,-8.8278092,115.1647207
57,Bangkah Rock Village,Sanggah?,"Pacung, Tejakula, Buleleng",Tejakula,0,Buleleng,Bali,81173,-8.1006079,115.2775381
58,Bangkiang Jaran,Sanggah?,"Unnamed Road, Dawan Kaler, Dawan",Dawan Kaler,Dawan,Klungkung,Bali,80761,-8.5291633,115.4493317
59,Banjar Adat Penutuk,Balai Banjar,"Batumadeg, Nusapenida, Klungkung, Bali, 80771",Batumadeg,Nusapenida,Klungkung,Bali,80771,-8.7432592,115.5093349
60,Banjar Adat Tukad Saang,Balai Banjar,"Unnamed Road, Pejukutan, Nusapenida, Klungkung, Bali, 80771",Pejukutan,Nusapenida,Klungkung,Bali,80771,-8.7501702,115.5737171
61,Banjar Badung,Balai Banjar,"Yeh Embang Kauh, Mendoyo, Jembrana, Bali, 82261",Yeh Embang Kauh,Mendoyo,Jembrana,Bali,82261,-8.330486,114.744904
62,Banjar Bantas Kaja,Balai Banjar,"Jl. Raya Sibanggede VII No.2, Sibang Gede, Abiansemal, Badung, Bali, 80352",Sibang Gede,Abiansemal,Badung,Bali,80352,-8.5739593,115.2205256
63,Banjar Bantas Kelod,Balai Banjar,"Banjar Bantas Kelod, Sibang Gede, Abiansemal, Badung, Bali, 80352",Sibang Gede,Abiansemal,Badung,Bali,80352,-8.5763172,115.2215213
64,Banjar Bantas Kelod Sibanggede,Balai Banjar,"Banjar Bantas Kelod, Sibang Gede, Abiansemal, Badung, Bali, 80352",Sibang Gede,Abiansemal,Badung,Bali,80352,-8.5758283,115.2203586
65,Banjar Bukit,Balai Banjar,"Bukit, Karangasem, Karangasem, Bali, 80811",Bukit,Karangasem,Karangasem,Bali,80811,-8.4196624,115.635155
66,Banjar Buluh,Balai Banjar,"Jl. Nakula No.3, Wismakerta, Sidemen, Karangasem, Bali, 80864",Wismakerta,Sidemen,Karangasem,Bali,80864,-8.4949186,115.4223402
67,Banjar Dajan Peken,Balai Banjar,"Jl. Oleg, Penarungan, Mengwi, Badung, Bali, 80352",Penarungan,Mengwi,Badung,Bali,80352,-8.5373121,115.1993359
68,Banjar dangin pangkung kaba kaba,Balai Banjar,"Kaba-Kaba, Kediri, Tabanan, Bali, 82121",Kaba-Kaba,Kediri,Tabanan,Bali,82121,-8.5930167,115.1422148
69,Banjar Dharma Yasa,Balai Banjar,"Unnamed Road, Monjok, Selaparang, Kota Mataram",Monjok,Selaparang,Kota Mataram,NTB,0,-8.5726525,116.1105494
70,Banjar Dinas Lebu Babakan,Balai Banjar,"Lokasari, Sidemen, Karangasem, Bali, 80761",Lokasari,Sidemen,Karangasem,Bali,80761,-8.5154334,115.4232605
71,Banjar Dinas Mekar Sari,Balai Banjar,"Laba Sari, Abang, Karangasem, Bali, 80852",Laba Sari,Abang,Karangasem,Bali,80852,-8.3246197,115.6213932
72,Banjar Dinas poh desa bhuana giri,Balai Banjar,"Unnamed Road, Budakeling, Bebandem, Karangasem, Bali, 80861",Budakeling,Bebandem,Karangasem,Bali,80861,-8.3666867,115.5590517
73,Banjar Dinas Sebuluh Kawan,Balai Banjar,"Sebuluh., Bunga Mekar, Nusapenida, Klungkung, Bali, 80771",Bunga Mekar,Nusapenida,Klungkung,Bali,80771,-8.7518236,115.4911113
74,Banjar Gede,Balai Banjar,"Jl. Raya Penarungan, Lukluk, Mengwi, Badung, Bali, 80351",Lukluk,Mengwi,Badung,Bali,80351,-8.5718208,115.193895
75,Banjar Gelang,Balai Banjar,"Suwug, Sawan, Buleleng, Bali, 81119",Suwug,Sawan,Buleleng,Bali,81119,-8.1355959,115.1538302
76,Banjar Gula Kelod,Balai Banjar,"Budakeling, Bebandem, Karangasem, Bali, 80861",Budakeling,Bebandem,Karangasem,Bali,80861,-8.3993359,115.5524767
77,Banjar Gunung Embid,Balai Banjar,"Jl. Raya Mekaki, Pelangan, Sekotong Tengah, Lombok Barat, NTB, 83365",Pelangan,Sekotong Tengah,Lombok Barat,NTB,83365,-8.809023,115.9430746
78,Banjar Kancil Desa Rdat Kerdobokan,Balai Banjar,"Gg. 21, Kerobokan, Kuta Utara, Badung, Bali, 80361",Kerobokan,Kuta Utara,Badung,Bali,80361,-8.6491598,115.1694134
79,Banjar Karya Jati Laksana (Kr.Swela),Balai Banjar,"Tanjung, North Lombok, NTB 83352",0,0,Lombok Utara,NTB,83352,-8.3596844,116.1587291
80,Banjar Kumara Dharma Laksana,Balai Banjar,"Unnamed Road, Tanjung, Lombok Utara, NTB, 83352",0,Tanjung,Lombok Utara,NTB,83352,-8.3546687,116.1549322
81,Banjar Lebah Marga Duur Perigi,Balai Banjar,"Marga, Tabanan, Bali, 82181",0,Marga,Tabanan,Bali,82181,-8.4704671,115.1677073
82,Banjar Lembongan,Balai Banjar,"Jl. Raya Mekaki, Pelangan, Sekotong Tengah, Lombok Barat, NTB, 83365",Pelangan,Sekotong Tengah,Lombok Barat,NTB,83365,-8.790841,115.9304726
83,Banjar Mekar Sari Tangkeban RT05,Balai Banjar,"Merembu, Labuapi, Lombok Barat, NTB 83362",Merembu,Labuapi,Lombok Barat,NTB,83362,-8.625448,116.1636129
84,Banjar Mijil,Balai Banjar,"Sangkan Gunung, Sidemen, Karangasem, Bali, 80864",Sangkan Gunung,Sidemen,Karangasem,Bali,80864,-8.4509121,115.4414371
85,Banjar Nagi,Balai Banjar,"Unnamed Road, Wismakerta, Sidemen, Karangasem, Bali, 80864",Wismakerta,Sidemen,Karangasem,Bali,80864,-8.492812,115.4235291
86,Banjar Pengipian,Balai Banjar,"Jl. Gn. Tangkuban Perahu No.69, Kerobokan Kelod, Kuta Utara, Badung, Bali, 80361",Kerobokan Kelod,Kuta Utara,Badung,Bali,80361,-8.6768322,115.1744416
87,Banjar Petingan,Balai Banjar,"Jl. Rahayu No.6, Kerobokan Kaja, Kuta Utara, Badung, Bali, 80361",Kerobokan Kaja,Kuta Utara,Badung,Bali,80361,-8.6448043,115.1729131
88,Banjar Sentalkangin,Balai Banjar,"Jl. Sentalkangin, Ped, Nusapenida, Klungkung, Bali, 80771",Ped,Nusapenida,Klungkung,Bali,80771,-8.6867752,115.536956
89,Banjar Sentalkawan,Balai Banjar,"Ped, Nusapenida, Klungkung, Bali, 80771",0,Nusapenida,Klungkung,Bali,80771,-8.6866956,115.5293536
90,Banjar Seraya Pagesangan,Balai Banjar,"Jl. Guru Bangkol No.66, Pagesangan Timur, Mataram, Kota Mataram, NTB, 83117",Pagesangan Timur,Mataram,Kota Mataram,NTB,83117,-8.5988912,116.1059377
91,Banjar Suka Duka,Balai Banjar,"Biskop, Jalan, Jl. Raya Tj., Jenggala, Tanjung, Lombok Utara, NTB, 83352",0,Tanjung,Lombok Utara,NTB,83352,-8.35397,116.1561213
92,Banjar Tanglad (Pura),Balai Banjar,"Unnamed Road, Tanglad, Nusapenida, Klungkung, Bali, 80771",Tanglad,Nusapenida,Klungkung,Bali,80771,-8.7730474,115.583321
93,Banjar Tanjung,Balai Banjar,"Jl. Danau Poso No.7, Sanur Kauh, Denpasar Selatan, Kota Denpasar, Bali",Sanur Kauh,Denpasar Selatan,Kota Denpasar,Bali,0,-8.7047301,115.2481567
94,Banyan Spirit Tree Temple,Sanggah?,"Jalan Spirit Tree, Wanagiri, Sukasada, Buleleng, Bali, 81161",Wanagiri,Sukasada,Buleleng,Bali,81161,-8.2371455,115.1038611
95,Pura Batu Bintang,,Jl. Pulau Selayar No.46,Dauh Puri Klod,Denpasar Barat,Kota Denpasar,Bali,80113,-8.6724429,115.2131932
96,Pura Batu Mejan,,Jl. Batu Mejan Canggu,Canggu,Kuta Utara,Badung,Bali,80361,-8.6554368,115.1256942
97,Batu palungan,,Jl. Pekutatan,Manggissari,Pekutatan,Jembrana,Bali,82262,-8.3936277,114.8764982
98,Batu Sanghyang,,Jl. Tunjung Bang,Bungaya,Bebandem,Karangasem,Bali,80861,-8.458209,115.5784561
99,Batu Tumpeng,,"Seraya, Karangasem, Karangasem, Bali, 80811",Seraya,Karangasem,Karangasem,Bali,80811,-8.4227595,115.6607573
100,Batuan Temple,,"Jl. Raya Batuan, Batuan, Sukawati, Gianyar, Bali, 80582",Batuan,Sukawati,Gianyar,Bali,80582,-8.5818712,115.2760052
101,Batur Panti Temple,,"Jl. Trengguli, Penatih, Denpasar Timur, Kota Denpasar, Bali, 80237",Penatih,Denpasar Timur,Kota Denpasar,Bali,80237,-8.6324625,115.2428471
102,Batur Taman,,"Anggasari, Munduk Temu, Pupuan, Tabanan, Bali, 82163",Munduk Temu,Pupuan,Tabanan,Bali,82163,-8.3583463,114.9645389
103,Batur Temple,,"Gg. Mangga III, Tibubeneng, Kuta Utara, Badung, Bali, 80361",Tibubeneng,Kuta Utara,Badung,Bali,80361,-8.6352354,115.1553993
104,Bayuangga,,"Wanasari, Tabanan, Tabanan, Bali, 82181",Wanasari,Tabanan,Tabanan,Bali,82181,-8.4890572,115.1355466
105,Beautiful White Temple,,"Kutuh, South Kuta, Badung, Bali, 80361",Kutuh,South Kuta,Badung,Bali,80361,-8.8335914,115.1782357
106,"Beji Banjar Adat Mengening Bedelodan, Nyitdah Kediri",Pura Beji,"Unnamed Road, Nyitdah, Kediri, Tabanan, Bali, 82121",Nyitdah,Kediri,Tabanan,Bali,82121,-8.5860222,115.1149171
107,Beji Banjar Durentaluh,Pura Beji,"Belimbing, Pupuan, Tabanan, Bali, 82163",Belimbing,Pupuan,Tabanan,Bali,82163,-8.4147428,115.0311504
108,Beji Banjar Tatag Desa Guwang,Pura Beji,"Guwang, Sukawati, Gianyar, Bali, 80582",Guwang,Sukawati,Gianyar,Bali,80582,-8.6246634,115.2876951
109,Beji Batan Ancak Mas Ubud,Pura Beji,"MAS, Ubud, Gianyar, Bali, 80571",MAS,Ubud,Gianyar,Bali,80571,-8.5337768,115.2716957
110,Beji Jepun,Pura Beji,"Ababi, Abang, Karangasem, Bali, 80852",Ababi,Abang,Karangasem,Bali,80852,-8.4084743,115.5908925
111,Beji Kahyangan Demung,Pura Beji,"Jl. Rambutan No.16, Delod Peken, Tabanan, Tabanan, Bali, 82121",Delod Peken,Tabanan,Tabanan,Bali,82121,-8.5535854,115.1278483
112,Beji Kayangan Jagat Dalem Pura Kubontingguh Tabanan,Pura Beji,"Jl. kubontingguh, Denbantas, Tabanan, Tabanan, Bali, 82123",Denbantas,Tabanan,Tabanan,Bali,82123,-8.5122847,115.1394854
113,Beji Klaci,Pura Beji,"Duda Timur, Selat, Karangasem, Bali, 80862",Duda Timur,Selat,Karangasem,Bali,80862,-8.4447527,115.5021483
114,Beji Lingga Jati Desa Adat Ipah,Pura Beji,"Unnamed Road, Sangkan Gn., Sidemen, Karangasem, Bali, 80864",Sangkan Gn.,Sidemen,Karangasem,Bali,80864,-8.4499294,115.4459573
115,Beji Manikan,Pura Beji,"Jl. Raya Guwang No.1, Guwang, Sukawati, Gianyar, Bali, 80582",Guwang,Sukawati,Gianyar,Bali,80582,-8.623957,115.2842231
116,Beji Pakiisan Tukad Yeh Mawo (Puakanu0026Sandan),Pura Beji,"Tengkudak, Penebel, Tabanan, Bali, 82152",Tengkudak,Penebel,Tabanan,Bali,82152,-8.4148009,115.1102789
117,Beji Paku Meyeh,Pura Beji,"Samplangan, Gianyar, Bali, 80512",0,Samplangan,Gianyar,Bali,80512,-8.521333,115.3324121
118,Beji Panca Pendawa,Pura Beji,"Jl. Pantai Nyanyi, Beraban, Kediri, Tabanan, Bali, 82121",Beraban,Kediri,Tabanan,Bali,82121,-8.6286848,115.0992113
119,Beji pancoran jepun,Pura Beji,"Unnamed Road, Tajen, Penebel, Tabanan, Bali, 82181",Tajen,Penebel,Tabanan,Bali,82181,-8.4396509,115.1559261
120,Beji pancoran temen,Pura Beji,"pande, Tajen, Penebel, Tabanan, Bali, 82181",Tajen,Penebel,Tabanan,Bali,82181,-8.4365717,115.1555348
121,Beji Penglukatan Waringin Pitu,Pura Beji,"Jl. Sandat No.15, Kapal, Mengwi, Badung, Bali, 80351",Kapal,Mengwi,Badung,Bali,80351,-8.5624528,115.1790034
122,Beji Pitra Gangga Gunung Kangin,Pura Beji,"Unnamed Road, Bangli, Baturiti, Tabanan, Bali, 82191",Bangli,Baturiti,Tabanan,Bali,82191,-8.3331028,115.1817245
123,"Beji Pura Bandesa Manik Mas, Mengening Balairan. Nyitdah Kediri.",Pura Beji,"Jl. Dedela Nata, Nyitdah, Kediri, Tabanan, Bali, 82121",Nyitdah,Kediri,Tabanan,Bali,82121,-8.5856734,115.1154777
124,Beji Pura Dalem Ageng Abuan,Pura Beji,"Abuan, Susut, Bangli, Bali, 80661",Abuan,Susut,Bangli,Bali,80661,-8.4675054,115.3392822
125,Beji Pura Dalem Ds. Pakraman Nagasari,Pura Beji,"Banjar Dauhsiyong, Lumbung Kauh, Selemadeg Barat, Tabanan, Bali, 82162",Lumbung Kauh,Selemadeg Barat,Tabanan,Bali,82162,-8.4567457,114.9889125
126,Beji Pura Luhur Peneduhan Desa Pekraman Sanggulan,Pura Beji,"Banjar Anyar, Kediri, Tabanan, Bali, 82121",Banjar Anyar,Kediri,Tabanan,Bali,82121,-8.5486977,115.1301044
127,Beji Pura Puseh Luhur Bedha,Pura Beji,"Jl. Yeh Gangga I, Sudimara, Tabanan, Tabanan, Bali, 82115",Sudimara,Tabanan,Tabanan,Bali,82115,-8.5736371,115.0912188
128,Beji Pura Sekar,Pura Beji,"Tejakula, Buleleng, Bali, 81173",0,Tejakula,Buleleng,Bali,81173,-8.1194648,115.3452803
129,Beji Sawang Desa Dalem Abuan,Pura Beji,"Jl.  mundung, Abuan, Susut, Bangli, Bali, 80661",Abuan,Susut,Bangli,Bali,80661,-8.4651237,115.3273772
130,Beji Selati - Genah Melukat Pesiraman Pura Dalem Pingit,Pura Beji,"Jl. Banjar Selat, Bunutin, Bangli, Bangli, Bali, 80614",Bunutin,Bangli,Bangli,Bali,80614,-8.5189698,115.3351311
131,Beji Serongga Gede,Pura Beji,"Pangkung Karung, Kerambitan, Tabanan, Bali, 82161",Pangkung Karung,Kerambitan,Tabanan,Bali,82161,-8.5546565,115.0872706
132,Beji Suci,Pura Beji,"Duda, Selat, Karangasem, Bali, 80862",Duda,Selat,Karangasem,Bali,80862,-8.4419996,115.4998079
133,Pura Beji Sudamala Tambawaras,Pura Beji,"Unnamed Road, Sangketan, Penebel, Tabanan, Bali, 82152",Sangketan,Penebel,Tabanan,Bali,82152,-8.420384,115.100388
134,Pura Beji Sudhamala,Pura Beji,"Jl. Merpati, Tajen, Penebel, Tabanan, Bali, 82181",Tajen,Penebel,Tabanan,Bali,82181,-8.443435,115.153549
135,Pura Beji Taman,Pura Beji,"Gubug, Tabanan, Tabanan, Bali",Gubug,Tabanan,Tabanan,Bali,0,-8.5423236,115.1082012
136,Pura Beji Telepud,Pura Beji,"Beraban, Kediri, Tabanan, Bali, 82121",Beraban,Kediri,Tabanan,Bali,82121,-8.6039993,115.1097413
137,Pura Beji Temple,Pura Beji,"Jl. Raya Sangsit, Sangsit, Sawan, Buleleng, Bali, 81171",Sangsit,Sawan,Buleleng,Bali,81171,-8.0836764,115.1342333
138,Pura Beji Tirta Tawar,Pura Beji,"Ubud, Gianyar, Bali, 80571",0,Ubud,Gianyar,Bali,80571,-8.4821671,115.271598
139,Pura Beji Tirtha Harum,Pura Beji,"Serangan, Denpasar Selatan, Kota Denpasar, Bali, 80229",Serangan,Denpasar Selatan,Kota Denpasar,Bali,80229,-8.738656,115.2296093
140,Pura Beji toya tirta harum,Pura Beji,"Jl. Rapuan, MAS, Ubud, Gianyar, Bali, 80571",MAS,Ubud,Gianyar,Bali,80571,-8.5483038,115.2758101
141,Pura Beji toyo tabah,Pura Beji,"Jl. Merpati, Biaung, Penebel, Tabanan, Bali, 82181",Biaung,Penebel,Tabanan,Bali,82181,-8.4355046,115.155629
142,Pura Beji Tuun Kauh,Pura Beji,"Banjar Sarasidi, Sembung Gede, Kerambitan, Tabanan, Bali, 82152",Sembung Gede,Kerambitan,Tabanan,Bali,82152,-8.4932832,115.1023161
143,Pura Beji Yeh Bulan,Pura Beji,"Kesiut, Kerambitan, Tabanan, Bali, 82152",Kesiut,Kerambitan,Tabanan,Bali,82152,-8.4819629,115.1112938
144,"Beji, Pura Tangkas Kori Agung. Mengening Balairan. Nyitdah, Kediri",Pura Beji,"Jl. Dedela Nata, Nyitdah, Kediri, Tabanan, Bali, 82121",Nyitdah,Kediri,Tabanan,Bali,82121,-8.5856201,115.1157385
145,Bendesa Manik Mas,,"Jl. Tunjuk, Tunjuk, Tabanan, Tabanan, Bali, 82181",Tunjuk,Tabanan,Tabanan,Bali,82181,-8.4716318,115.1524165
146,Bendesa Manik Mas Desa Kelusa,,"Kelusa, Payangan, Gianyar, Bali, 80572",Kelusa,Payangan,Gianyar,Bali,80572,-8.4442687,115.2551391
147,Bendesa Mas Putih Mayong Bubunan,,"Lokapaksa, Seririt, Buleleng, Bali, 81153",Lokapaksa,Seririt,Buleleng,Bali,81153,-8.1986858,114.9370098
148,Besakih Mother Temple,,"Besakih, Rendang, Karangasem, Bali, 80863",Besakih,Rendang,Karangasem,Bali,80863,-8.3735095,115.4525767
149,Banjar Kayukapas,Balai Banjar,"Kintamani, Bangli, Bali, 80652",0,Kintamani,Bangli,Bali,80652,-8.2578515,115.318143
150,Banjar Tundak,Balai Banjar,"Banjar Tundak, Mekarsari, Baturiti, Tabanan, Bali, 82191",Mekarsari,Baturiti,Tabanan,Bali,82191,-8.3762377,115.1961461
151,"Banjar Bandung, Siangan",Balai Banjar,"Jl. Raya Siangan, Siangan, Gianyar, Gianyar, Bali, 80515",Siangan,Gianyar,Gianyar,Bali,80515,-8.5205002,115.3091268
152,Banjar Jepun Batumulapan Nusa Penida,Balai Banjar,"Batununggul, Nusapenida, Klungkung, Bali, 80771",Batununggul,Nusapenida,Klungkung,Bali,80771,-8.6847077,115.5732945
153,Banjar Landih,Balai Banjar,"Landih, Bangli, Bangli, Bali, 80614",Landih,Bangli,Bangli,Bali,80614,-8.3355384,115.3734231
154,Banjar Pasekan Buduk,Balai Banjar,"Jl. Kahyangan No.10, Buduk, Mengwi, Badung, Bali, 80351",Buduk,Mengwi,Badung,Bali,80351,-8.6064262,115.1594798
155,Banjar Puseh Desa Pakraman Pedungan,Balai Banjar,"Jalan Pulau Bungin, Denpasar, Bali",0,0,Denpasar,Bali,0,-8.6864986,115.2062611
156,Banjar Sental Kangin,Balai Banjar,"Jl. Sentalkangin, Ped, Nusapenida, Klungkung, Bali, 80771",Ped,Nusapenida,Klungkung,Bali,80771,-8.6768149,115.5345343
157,Banjar Susut Desa Baru Marga Tabanan,Balai Banjar,"Sulahan, Susut, Bangli, Bali",Sulahan,Susut,Bangli,Bali,0,-8.3889801,115.176676
158,Banjar Suwung Batan Kendal,Balai Banjar,"Jl. Suwung Batan Kendal No.108, Sesetan, Denpasar Selatan, Kota Denpasar, Bali, 80223",Sesetan,Denpasar Selatan,Kota Denpasar,Bali,80223,-8.710644,115.2244083
159,Banjar Tampuagan,Balai Banjar,"Karangasem, Karangasem, Bali, 80811",0,Karangasem,Karangasem,Bali,80811,-8.4449512,115.6125567
160,Bujangga waisnawa,,"Jl. Pulau Menjangan, Pegadungan, Sukasada, Buleleng, Bali, 81161",Pegadungan,Sukasada,Buleleng,Bali,81161,-8.1493968,115.129909
161,Bukit bayan temple,,"Sakti, Nusapenida, Klungkung, Bali, 80771",Sakti,Nusapenida,Klungkung,Bali,80771,-8.6956395,115.4814755
162,Bukit Mende,,"Unnamed Road,, Kubutambahan, Buleleng, Bali, 81172",,Kubutambahan,Buleleng,Bali,81172,-8.1566621,115.3476346
163,Bukit Ngandang Spirit,,"Antiga, Manggis, Karangasem, Bali, 80871",Antiga,Manggis,Karangasem,Bali,80871,-8.5364772,115.4986882
164,Bukit Pucaksari Pangi,,"Karangasem Banjar PANGI, PANGI, Karangasem, Karangasem, Bali, 80811",PANGI,Karangasem,Karangasem,Bali,80811,-8.4244659,115.6114714
165,Bukit Temple,,"Jalan Raya Tegallalang, Kedisan, Tegallalang, Kedisan, Gianyar, Bali, 80561",0,Tegallalang,Gianyar,Bali,80561,-8.4173613,115.2919459
166,Bukit Tenayang Temple,,"Galungan, Sawan, Buleleng, Bali, 81171",Galungan,Sawan,Buleleng,Bali,81171,-8.1865137,115.2068334
167,Bura Ulun Desa,,"Desa Pakraman Nagasari, Lumbung Kauh, Selemadeg Barat, Tabanan, Bali, 82162",Lumbung Kauh,Selemadeg Barat,Tabanan,Bali,82162,-8.4524283,114.9815969
168,Bwarbwaran Temple,,"Seraya, Karangasem, Karangasem, Bali, 80811",Seraya,Karangasem,Karangasem,Bali,80811,-8.4263603,115.6686772
169,Cagar Budaya,,"Jl. Raya Alas Kedaton, Kukuh, Marga, Tabanan, Bali, 82121",Kukuh,Marga,Tabanan,Bali,82121,-8.5240236,115.1518541
170,Campuhan tiga,,"Tangguntiti, Selemadeg Timur, Tabanan, Bali, 82161",Tangguntiti,Selemadeg Timur,Tabanan,Bali,82161,-8.5481059,115.0602637
171,Candi Agung Garuda Kala Mukti,,"Unnamed Road, Pangsan, Petang, Badung, Bali, 80353",Pangsan,Petang,Badung,Bali,80353,-8.3963764,115.2123433
172,Candi BENTAR,Pribadi,"Jl. Pantai Peminge, Benoa, Kuta Selatan, Badung, Bali",Benoa,Kuta Selatan,Badung,Bali,0,-8.8077153,115.2315992
173,Candi Luhur Moksajati,,"Sumberjoyo, Kumendung, Muncar, Banyuwangi, East Java 68472",Kumendung,Muncar,Banyuwangi,Jawa Timur ,68472,-8.3865947,114.3432478
174,Candi Mas Temple,,"Pancasari, Sukasada, Buleleng, Bali, 82191",Pancasari,Sukasada,Buleleng,Bali,82191,-8.2563564,115.1463747
175,Candi Narmada Temple,,"Pemogan, Denpasar Selatan, Kota Denpasar, Bali, 80361",Pemogan,Denpasar Selatan,Kota Denpasar,Bali,80361,-8.7271026,115.1889854
176,Candi Tebing Gunung Kawi,,"Banjar penaka, Tampaksiring, Gianyar, Bali, 80552",Banjar penaka,Tampaksiring,Gianyar,Bali,80552,-8.4230656,115.3123232
177,Candi tebing kelebutan,,"Pejeng, Tampaksiring, Gianyar, Bali, 80552",Pejeng,Tampaksiring,Gianyar,Bali,80552,-8.516388,115.287067
178,Candi Tebing Tegallingah,,"Bedulu, Blahbatuh, Gianyar, Bali, 80581",Bedulu,Blahbatuh,Gianyar,Bali,80581,-8.5278669,115.3059551
179,Catus Pata Banjar Kebon Anyar,,"Banjar Kebon Anyar, Wanagiri Kauh, Selemadeg, Tabanan, Bali, 82163",Wanagiri Kauh,Selemadeg,Tabanan,Bali,82163,-8.4101842,115.0434454
180,Catus Pata Desa Pekraman Pegubugan,,"Unnamed Road, Duda, Selat, Karangasem, Bali, 80862",Duda,Selat,Karangasem,Bali,80862,-8.4379957,115.4932843
181,CEGI,Pribadi,"Tianyar, Kubu, Karangasem, Bali, 80853",Tianyar,Kubu,Karangasem,Bali,80853,-8.2130734,115.491124
182,Celuksari Temple,,"Sudaji, Sawan, Buleleng, Bali, 81161",Sudaji,Sawan,Buleleng,Bali,81161,-8.1617522,115.1626369
183,Dadia Warga Pande Yeh Susut,Pura Dadia,"Kaliasem, Banjar, Buleleng, Bali, 81152",Kaliasem,Banjar,Buleleng,Bali,81152,-8.1948685,115.0301472
184,Dadia,Pura Dadia,"Biaung, Penebel, Tabanan, Bali, 82181",Biaung,Penebel,Tabanan,Bali,82181,-8.4035323,115.158275
185,Dadia 1 Arya Kutawaringin,Pura Dadia,"Desa Pekraman Yeh Sanih, Bukti, Kubutambahan, Buleleng, Bali, 81172",Bukti,Kubutambahan,Buleleng,Bali,81172,-8.0849362,115.2195561
186,Dadia Agung Pasek Gel-gel Desa Yehkuning,Pura Dadia,"Unnamed Road, Yeh Kuning, Jembrana, Jembrana, Bali",Yeh Kuning,Jembrana,Jembrana,Bali,0,-8.395447,114.6574069
187,Dadia Arya Kanuruhan Tangkas Kori Agung,Pura Dadia,"Tiyingtali, Abang, Karangasem, Bali, 80852",Tiyingtali,Abang,Karangasem,Bali,80852,-8.4146387,115.6125614
188,Dadia Arya Kenceng Pedawa,Pura Dadia,"Pedawa, Banjar, Buleleng, Bali, 81161",Pedawa,Banjar,Buleleng,Bali,81161,-8.2402295,115.0287213
189,Dadia Arya Kuta Waringin (Yeh Sanih),Pura Dadia,"Bukti, Kubutambahan, Bukti, Kubutambahan, Buleleng, Bali, 81172",Kubutambahan,Kubutambahan,Buleleng,Bali,81172,-8.0830622,115.2165071
190,Dadia Arya Tegeh Kori Lebah Mantung,Pura Dadia,"Sari Mekar, Buleleng, Buleleng, Bali, 81161",Sari Mekar,Buleleng,Buleleng,Bali,81161,-8.136773,115.1103529
191,Dadia Arya Tegeh Kori Lebah Mantung,Pura Dadia,"Sari Mekar, Buleleng, Buleleng, Bali, 81161",Sari Mekar,Buleleng,Buleleng,Bali,81161,-8.145733,115.1113138
192,Dadia Arya Wang Bang Pinatih Tanggahan Tengah,Pura Dadia,"Unnamed Road, Demulih, Susut, Bangli, Bali, 80661",Demulih,Susut,Bangli,Bali,80661,-8.4801194,115.3417525
193,Dadia Bandesa Manik Mas Sari Mekar,Pura Dadia,"Sari Mekar, Buleleng, Buleleng, Bali, 81161",Sari Mekar,Buleleng,Buleleng,Bali,81161,-8.1365926,115.1156725
194,Dadia Batu Jelantik,Pura Dadia,"Unnamed Road, Panji Anom, Sukasada, Buleleng, Bali, 81119",Panji Anom,Sukasada,Buleleng,Bali,81119,-8.1446146,115.072453
195,Dadia Batur Sari Telaga Beteng,Pura Dadia,"Tiyingtali, Abang, Karangasem, Bali, 80852",Tiyingtali,Abang,Karangasem,Bali,80852,-8.4141515,115.6115636
196,Dadia Bendesa Mas Sanih,Pura Dadia,"Bukti, Kubutambahan, Buleleng, Bali, 81172",Bukti,Kubutambahan,Buleleng,Bali,81172,-8.0834124,115.2236882
197,Dadia BENDESA TANGKAS KORI AGUNG,Pura Dadia,"Sepang, Busungbiu, Buleleng, Bali, 81154",Sepang,Busungbiu,Buleleng,Bali,81154,-8.3112589,114.9140837
198,Dadia Bhujangga Waisnawa Gurun Putu Widia,Pura Dadia,"Berangbang, Negara, Jembrana, Bali, 82212",Berangbang,Negara,Jembrana,Bali,82212,-8.330902,114.6130181
199,Dadia BILA SUCI KUTA BALI,Pura Dadia,"BANJAR KUTA BALI, Sibetan, Bebandem, Karangasem, Bali, 80861",Sibetan,Bebandem,Karangasem,Bali,80861,-8.4519199,115.5224285
200,Dadia Dalem Tarukan,Pura Dadia,"Nyanglan, Banjarangkan, Klungkung, Bali, 80752",Nyanglan,Banjarangkan,Klungkung,Bali,80752,-8.4625092,115.3957849
201,Dadia Dhalem Mpu Haji Bualu,Pura Dadia,"Benoa, South Kuta, Badung, Bali, 80361",Benoa,South Kuta,Badung,Bali,80361,-8.7993086,115.2194166
202,Dadia dukuh segening,Pura Dadia,"Jl. Gn. Lempuyang, Amerta Bhuana, Selat, Karangasem, Bali, 80862",Amerta Bhuana,Selat,Karangasem,Bali,80862,-8.4130557,115.4890517
203,Dadia Kebayan Tunjuk Tengah,Pura Dadia,"Tunjuk, Tabanan, Tabanan, Bali, 82181",Tunjuk,Tabanan,Tabanan,Bali,82181,-8.4692371,115.1529541
204,Dadia loka santhi pemeluk siwa muka bulakan dalem tamblingan,Pura Dadia,"Banjar Kembang Sari, Panji, Sukasada, Buleleng, Bali, 81119",Panji,Sukasada,Buleleng,Bali,81119,-8.1376968,115.0807308
205,Dadia Manikan(2),Pura Dadia,"Jl. raya besakih gembalan, Selat, Klungkung, Klungkung, Bali, 80716",Selat,Klungkung,Klungkung,Bali,80716,-8.483862,115.401898
206,Dadia Merajan Pasek Darma Semara,Pura Dadia,"Jl. Badeg Tengah, Sebudi, Selat, Karangasem, Bali, 80862",Sebudi,Selat,Karangasem,Bali,80862,-8.394175,115.4846167
207,Dadia Nangka Sari Ketewel,Pura Dadia,"Jl. Setia Budi No.77, Penarukan, Buleleng, Buleleng, Bali, 81119",Penarukan,Buleleng,Buleleng,Bali,81119,-8.1072277,115.1156963
208,Dadia Nararya Dalem Benculuk Tegeh Kori Culik,Pura Dadia,"Culik, Abang, Karangasem, Bali, 80852",Culik,Abang,Karangasem,Bali,80852,-8.3465741,115.6148103
209,Dadia paek gelgel yehkuning,Pura Dadia,"Jl. Bisma, Yeh Kuning, Jembrana, Jembrana, Bali, 82261",Yeh Kuning,Jembrana,Jembrana,Bali,82261,-8.3730464,114.6722993
210,Dadia Panasan,Pura Dadia,"Jl. Sidawa, Taman Bali, Bangli, Bangli, Bali, 80614",Taman Bali,Bangli,Bangli,Bali,80614,-8.49657,115.3454218
211,Dadia Pande Banjar Penyarikan Ds Suwug,Pura Dadia,"Jl. Raya Keloncing, Suwug, Sawan, Buleleng, Bali, 81119",Suwug,Sawan,Buleleng,Bali,81119,-8.1352141,115.1543148
212,Dadia pande selagalas,Pura Dadia,"Tiyingtali, Abang, Karangasem, Bali, 80852",Tiyingtali,Abang,Karangasem,Bali,80852,-8.4082713,115.6247624
213,Dadia Pande Telaga Beteng,Pura Dadia,"Tiyingtali, Abang, Karangasem, Bali, 80852",Tiyingtali,Abang,Karangasem,Bali,80852,-8.4146536,115.611046
214,Dadia Pande Tista,Pura Dadia,"Unnamed Road, Candikusuma, Melaya, Jembrana, Bali, 82252",Candikusuma,Melaya,Jembrana,Bali,82252,-8.2898246,114.5366219
215,Dadia Pande Tonja Tembuku,Pura Dadia,"Tembuku, Bangli, Bali, 80671",0,Tembuku,Bangli,Bali,80671,-8.4559845,115.3847315
216,"Dadia Pasek Batu Dinding, Tembuku",Pura Dadia,"Bakas,, Tembuku, Bangli, Bali, 80671",Bakas,Tembuku,Bangli,Bali,80671,-8.4567806,115.3843886
217,Dadia Pasek Bendesa,Pura Dadia,"Samplangan, Gianyar, Bali, 80512",0,Samplangan,Gianyar,Bali,80512,-8.5375309,115.3411125
218,Dadia Pasek Bendesa Manik Mas Baluk,Pura Dadia,"Baluk, Negara, Jembrana, Bali, 82218",Baluk,Negara,Jembrana,Bali,82218,-8.3562644,114.5672373
219,Dadia PASEK BENDESA TEGALBESAR,Pura Dadia,"Jl. Tegal Besar, Negari, Banjarankan, Klungkung, Bali",Negari,Banjarankan,Klungkung,Bali,0,-8.5714984,115.3746344
220,Dadia Pasek Celagi,Pura Dadia,"Jl. Erlangga, Sidembunut, Bangli, Bangli, Bali, 80613",Sidembunut,Bangli,Bangli,Bali,80613,-8.4451432,115.3669089
221,Dadia Pasek Desa Pakraman Sanih,Pura Dadia,"Bukti, Kubutambahan, Buleleng, Bali, 81172",Bukti,Kubutambahan,Buleleng,Bali,81172,-8.0838056,115.2234602
222,Dadia pasek gelgel,Pura Dadia,"Depeha, Kubutambahan, Buleleng, Bali, 81172",Depeha,Kubutambahan,Buleleng,Bali,81172,-8.1206096,115.2294129
223,Dadia Pasek Gelgel Berawantangi Tengah,Pura Dadia,"Tuwed, Melaya, Jembrana, Bali, 82252",Tuwed,Melaya,Jembrana,Bali,82252,-8.303809,114.5340606
224,Dadia Pasek Gelgel Delod Rurung Balaipunduk Kaler,Pura Dadia,"Balaipunduk Kaler, Tegallinggah, Karangasem, Karangasem, Bali, 80811",Tegallinggah,Karangasem,Karangasem,Bali,80811,-8.4260263,115.6207133
225,Dadia Pasek Gelgel Desa Pakeraman Sinalud,Pura Dadia,"Kayu Putih, Sukasada, Buleleng, Bali, 81152",Kayu Putih,Sukasada,Buleleng,Bali,81152,-8.1935394,115.0400586
226,Dadia pasek gelgel mertasari,Pura Dadia,"Jl. Gn. Raung, Loloan Timur, Jembrana, Jembrana, Bali, 82218",Loloan Timur,Jembrana,Jembrana,Bali,82218,-8.3706877,114.6224642
227,Dadia Pasek Gelgel Pegatepan Padangbulia,Pura Dadia,"Padangbulia, Sukasada, Buleleng, Bali",Padangbulia,Sukasada,Buleleng,Bali,0,-8.1571264,115.1224675
228,Dadia Pasek Gelgel Pegentengan,Pura Dadia,"Banjar, Buleleng, Bali, 81152",0,Banjar,Buleleng,Bali,81152,-8.2252895,114.9783619
229,Dadia Pasek Gelgel Sibang,Pura Dadia,"Banjar Tegeha, Banjar, Buleleng, Bali, 81152",Banjar Tegeha,Banjar,Buleleng,Bali,81152,-8.1992559,114.9690298
230,Dadia pasek gelgel yehkuning,Pura Dadia,"Jl. Parimata Jl. Banjar Tengah, Yehkuning, Selemadeg Timur, Jembrana, Bali, 82152",Yehkuning,Selemadeg Timur,Jembrana,Bali,82152,-8.4527563,115.0838822
231,"Dadia Pasek Gelgel, Banjar Lebong",Pura Dadia,"Gitgit, Sukasada, Buleleng, Bali, 81161",Gitgit,Sukasada,Buleleng,Bali,81161,-8.1780459,115.1335075
232,"Dadia Pasek Gelgel, Banjar Paketan.",Pura Dadia,"Unnamed Road, Paket Agung, Buleleng, Buleleng, Bali, 81117",Paket Agung,Buleleng,Buleleng,Bali,81117,-8.1273979,115.0951737
233,"Dadia Pasek Gelgel, Punduh Labak Kaja, Banyuning Timur",Pura Dadia,"Jl. Setia Budi Gang Sarasswati, Banyuning, Buleleng, Buleleng, Bali, 81119",Banyuning,Buleleng,Buleleng,Bali,81119,-8.1126922,115.1114729
234,Dadia Pasek Kubayan Desa Tangguwisia,Pura Dadia,"Jl Tanggubaya Gg. Melati No.4, Tangguwisia, Seririt, Buleleng, Bali, 81152",Tangguwisia,Seririt,Buleleng,Bali,81152,-8.1975681,114.9511642
235,Dadia Pasek Padang Subadra,Pura Dadia,"Banjar adat yehpanes, Patas, Gerokgak, Buleleng, Bali, 81155",Patas,Gerokgak,Buleleng,Bali,81155,-8.200818,114.8101129
236,Dadia Pasek PadangSubadra,Pura Dadia,"Duda Timur, Selat, Karangasem, Bali, 80862",Duda Timur,Selat,Karangasem,Bali,80862,-8.4484213,115.5008249
237,Dadia Pasek Pegatepan desa Pedawa,Pura Dadia,"Jl. Pedawa - Gobleg, Pedawa, Banjar, Buleleng, Bali, 81161",Pedawa,Banjar,Buleleng,Bali,81161,-8.2375916,115.0264576
238,Dadia Pegatepan Gelgel Klungkung,Pura Dadia,"Unnamed Road, Selat, Sukasada, Buleleng, Bali, 81161",Selat,Sukasada,Buleleng,Bali,81161,-8.1719939,115.0659651
239,Dadia Pitu Mumbul,Pura Dadia,"Jungutan, Bebandem, Karangasem, Bali, 80861",Jungutan,Bebandem,Karangasem,Bali,80861,-8.4301441,115.5417269
240,Dadia PRATI SENTANA SIRA ARYA KUBON TUBUH,Pura Dadia,"Gg. Melati, Sambirenteng, Tejakula, Buleleng, Bali, 81173",Sambirenteng,Tejakula,Buleleng,Bali,81173,-8.1452714,115.395451
241,Dadia Pulasari gembalan,Pura Dadia,"Unnamed Road, Selat, Klungkung, Klungkung, Bali, 80716",Selat,Klungkung,Klungkung,Bali,80716,-8.4840096,115.4016938
242,Dadia Ratu Dukuh Tektek,Pura Dadia,"Jl. Watukaru, Tembuku, Bangli, Bali, 80671",Jl. Watukaru,Tembuku,Bangli,Bali,80671,-8.4549225,115.3856866
243,Dadia Siwa Dharma Kerti,Pura Dadia,"Silangjana, Sukasada, Buleleng, Bali, 81161",Silangjana,Sukasada,Buleleng,Bali,81161,-8.1680456,115.1548093
244,Dadia Sri Karang Buncing,Pura Dadia,"Banjar Longsegeha, Desa, Pegadungan, Sukasada, Buleleng, Bali, 81161",Pegadungan,Sukasada,Buleleng,Bali,81161,-8.154147,115.1325897
245,Dadia TANGKAS KORI AGUNG-baluk,Pura Dadia,"Banjar.Dinas pura, Kaliasem, Banjar, Buleleng, Bali, 81152",Kaliasem,Banjar,Buleleng,Bali,81152,-8.1931678,115.0362482
246,Dadia TANGKAS KORI AGUNG BEBETIN,Pura Dadia,"BD DESA, Bebetin, Sawan, Buleleng, Bali, 81171",Bebetin,Sawan,Buleleng,Bali,81171,-8.1645177,115.203737
247,Dadia Toya Muncar,Pura Dadia,"Jungutan, Bebandem, Karangasem, Bali, 80861",Jungutan,Bebandem,Karangasem,Bali,80861,-8.4257849,115.5404764
248,Dadia Tutuan Den Bukit,Pura Dadia,"Jl. AA Pandji Tisna, Kaliasem, Banjar, Buleleng, Bali, 81152",Kaliasem,Banjar,Buleleng,Bali,81152,-8.1777362,115.0281423
249,Dadia Wang Bhang Manik Angkeran delod margi,Pura Dadia,"Temesi, Gianyar, Bali, 80515",0,Temesi,Gianyar,Bali,80515,-8.5426508,115.3511634
250,Dadia Wisuda Padang Rata,Pura Dadia,"Muncan, Selat, Karangasem, Bali, 80862",Muncan,Selat,Karangasem,Bali,80862,-8.4226079,115.4468693
251,Dadie Bendesa Mas,Pura Dadia,"Dsn. Dawan desa, Kalianget, Seririt, Buleleng, Bali, 81152",Kalianget,Seririt,Buleleng,Bali,81152,-8.2014312,114.9600483
252,Dadie Eka Wasana,Pura Dadia,"Pelapuan, Busungbiu, Buleleng, Bali, 81154",Pelapuan,Busungbiu,Buleleng,Bali,81154,-8.270695,115.00192
253,Dadie ibu,Pura Dadia,"Besakih, Rendang, Karangasem, Bali, 80863",Besakih,Rendang,Karangasem,Bali,80863,-8.3748592,115.4503226
254,Dadie Pande Alit abian kaje rock city,Pura Dadia,"Bengkala, Kubutambahan, Buleleng, Bali, 81171",Bengkala,Kubutambahan,Buleleng,Bali,81171,-8.0907955,115.1676141
255,Dadie pasek ceroring,Pura Dadia,"Jungutan, Bebandem, Karangasem, Bali, 80861",Jungutan,Bebandem,Karangasem,Bali,80861,-8.4321185,115.5286341
256,Dadie Pasek Gelgel Pura Besakih,Pura Dadia,"pura dadie pasek gel gel, Pempatan, Rendang, Karangasem, Bali, 80863",Pempatan,Rendang,Karangasem,Bali,80863,-8.3724417,115.4528245
257,Dadie Pasek Gelgel Sibang,Pura Dadia,"Banjar Tegeha, Banjar, Buleleng, Bali, 81152",Banjar Tegeha,Banjar,Buleleng,Bali,81152,-8.2001784,114.9709012
258,Dadya Arya Sentong,Pura Dadia,"Patemon, Seririt, Buleleng, Bali, 81153",Patemon,Seririt,Buleleng,Bali,81153,-8.202057,114.9278434
259,Dadya Dalem Blambangan,Pura Dadia,"Patemon, Seririt, Buleleng, Bali, 81153",Patemon,Seririt,Buleleng,Bali,81153,-8.2066454,114.9269133
260,Dadya Dharma Laksana,Pura Dadia,"Lokapaksa, Seririt, Buleleng, Bali, 81153",Lokapaksa,Seririt,Buleleng,Bali,81153,-8.2075693,114.9240625
261,Dadya Dharma Sandhi,Pura Dadia,"Lokapaksa, Seririt, Buleleng, Bali, 81153",Lokapaksa,Seririt,Buleleng,Bali,81153,-8.2052253,114.9206088
262,Dadya Dharma Utama,Pura Dadia,"Lokapaksa, Seririt, Buleleng, Bali, 81153",Lokapaksa,Seririt,Buleleng,Bali,81153,-8.207883,114.9239393
263,Dadya Dwityam Mandala Asak,Pura Dadia,"Pertima, Karangasem, Karangasem, Bali, 80811",Pertima,Karangasem,Karangasem,Bali,80811,-8.4674099,115.5915906
264,Dadya Jro Ambengan,Pura Dadia,"Jalan Pucak Sari, Lokapaksa, Seririt, Buleleng, Bali, 81153",Lokapaksa,Seririt,Buleleng,Bali,81153,-8.2086155,114.9241098
265,Dadya Kertha Sari,Pura Dadia,"Unnamed Road, Tri Buana, Abang, Karangasem, Bali, 80852",Tri Buana,Abang,Karangasem,Bali,80852,-8.4002932,115.623817
266,Dadya Kubayan Sudaji,Pura Dadia,"Sudaji, Sawan, Buleleng, Bali, 81171",Sudaji,Sawan,Buleleng,Bali,81171,-8.1522135,115.1645336
267,Dadya Pangeran Tangkas Kori Agung Desa Bila,Pura Dadia,"Jl. Gn. Batur, Bila, Kubutambahan, Buleleng, Bali, 81172",Bila,Kubutambahan,Buleleng,Bali,81172,-8.125641,115.190776
268,Dadya Pasek Deka Sentana,Pura Dadia,"Jl. Swadaya, Mekarsari, Baturiti, Tabanan, Bali, 82191",Mekarsari,Baturiti,Tabanan,Bali,82191,-8.3646317,115.1966279
269,Dadya Pasek Dukuh,Pura Dadia,"Wanagiri, Sukasada, Buleleng, Bali, 81161",Wanagiri,Sukasada,Buleleng,Bali,81161,-8.2100914,115.1261991
270,Dadya Pasek Gaduh Baluk II,Pura Dadia,"Baluk, Negara, Jembrana, Bali, 82218",Baluk,Negara,Jembrana,Bali,82218,-8.350172,114.5915895
271,Dadya Pasek Gelgel,Pura Dadia,"Banjar Dinas Sekaan, Undisan, Tembuku, Bangli, Bali, 80671",Undisan,Tembuku,Bangli,Bali,80671,-8.4364959,115.3948861
272,Dadya Pasek Gelgel Bayad,Pura Dadia,"Tajun, Kubutambahan, Buleleng, Bali, 81173",Tajun,Kubutambahan,Buleleng,Bali,81173,-8.1509462,115.2570869
273,Dadya Pasek Gelgel Ds Bontihing Banjar Kawanan,Pura Dadia,"Bontihing, Kubutambahan, Buleleng, Bali, 81172",Bontihing,Kubutambahan,Buleleng,Bali,81172,-8.1431959,115.1981283
274,Dadya Pasek Kayu Selem Tukad Sumaga,Pura Dadia,"Unnamed Road, Tukad Sumaga, Gerokgak, Buleleng, Bali, 81155",Tukad Sumaga,Gerokgak,Buleleng,Bali,81155,-8.2212214,114.8559237
275,Dadya Pasek Tohjiwa,Pura Dadia,"Dusun Dawan, Desa, Kalianget, Seririt, Buleleng, Bali, 81153",Kalianget,Seririt,Buleleng,Bali,81153,-8.2015891,114.960623
276,Dadya Pulasari Sepang,Pura Dadia,"Unnamed Road, Sepang, Busungbiu, Buleleng, Bali, 81154",Sepang,Busungbiu,Buleleng,Bali,81154,-8.3099661,114.9135616
277,Dadya Sanattana Dharma,Pura Dadia,"Jl. Puncak Sari, Lokapaksa, Seririt, Buleleng, Bali, 81153",Lokapaksa,Seririt,Buleleng,Bali,81153,-8.2077216,114.9230791
278,Dadya Satria Bangbang Bangun Sakti,Pura Dadia,"Cempaga, Bangli, Bangli, Bali, 80613",Cempaga,Bangli,Bangli,Bali,80613,-8.4381656,115.3702336
279,Dadya Satrya Dalem Samprangan,Pura Dadia,"Jl. Kakyang Cunguh, Yeh Embang Kauh, Mendoyo, Jembrana, Bali, 82261",Yeh Embang Kauh,Mendoyo,Jembrana,Bali,82261,-8.3674221,114.7620784
280,Dadya Taman Sari,Pura Dadia,"Desa Pakraman Angkah, Angkah, Selemadeg Barat, Tabanan, Bali, 82162",Angkah,Selemadeg Barat,Tabanan,Bali,82162,-8.4752882,115.0045016
281,Dadya Taman Sari,Pura Dadia,"Padangbulia, Sukasada, Buleleng, Bali, 81161",Padangbulia,Sukasada,Buleleng,Bali,81161,-8.1604416,115.1285715
282,Dadya Taman Sari,Pura Dadia,"Angkah, West Selemadeg, Tabanan, Bali, 82162",Angkah,West Selemadeg,Tabanan,Bali,82162,-8.4625097,115.0165615
283,Dadya Tangkas Kori Agung,Pura Dadia,"Bukti, Kubutambahan, Buleleng, Bali, 81172",Bukti,Kubutambahan,Buleleng,Bali,81172,-8.0830989,115.2237752
284,Dadye Pasek Gelgel Pegatepan,Pura Dadia,"Kintamani, Bangli, Bali, 80652",0,Kintamani,Bangli,Bali,80652,-8.2867908,115.3258086
285,Dalam Tunon Angseri Temple,,"Unnamed Road, Angseri, Baturiti, Tabanan, Bali, 82191",Angseri,Baturiti,Tabanan,Bali,82191,-8.3605573,115.1647472
286,Dalem Agung Pura Kawitan Shri Nararya Kreshna Kepakisan,Pura Kawitan,"Gelgel, Klungkung, Klungkung, Bali, 80761",Gelgel,Klungkung,Klungkung,Bali,80761,-8.5618007,115.4208649
287,Dalem Bija Temple,,"Mambal, Abiansemal, Badung, Bali, 80352",Mambal,Abiansemal,Badung,Bali,80352,-8.5325258,115.2304248
288,Dalem Keramas Shri Nararya Kreshna Kepakisan,,"Jl. Legong Keraton, Undisan, Tembuku, Bangli, Bali, 80671",Undisan,Tembuku,Bangli,Bali,80671,-8.448653,115.3950021
289,Dalem Kupa Entrance,,"Nongan, Rendang, Karangasem, Bali, 80863",Nongan,Rendang,Karangasem,Bali,80863,-8.4355799,115.4162716
290,Dalem Lebah Temple / Pura Dalem Lebah,,"Jl. Desa Abuan, Abuan, Susut, Bangli, Bali, 80661",Abuan,Susut,Bangli,Bali,80661,-8.4665948,115.3382016
291,Dalem Penatih,,"Jl. Muku, Rendang, Karangasem, Bali, 80863",0,Rendang,Karangasem,Bali,80863,-8.4280511,115.4194403
292,Dalem Pingit Tangkas Kori Agung Tanggahan Tengah,,"Tanggahan Tengah, Demulih, Susut, Bangli, Bali, 80661",Demulih,Susut,Bangli,Bali,80661,-8.4785426,115.3423322
293,Dalem Pingit Temple,,"Elephant Park Rd, Taro, Tegallalang, Gianyar, Bali, 80561",Taro,Tegallalang,Gianyar,Bali,80561,-8.3912389,115.2846221
294,Dalem Poh Tegeh,,"Suter, Kintamani, Bangli, Bali, 80652",Suter,Kintamani,Bangli,Bali,80652,-8.3384172,115.4034795
295,Dalem Tarukan,,"Antiga, Manggis, Karangasem, Bali, 80871",Antiga,Manggis,Karangasem,Bali,80871,-8.5068732,115.4955395
296,Dalem Temple Wisma Kerta,,"Jl. Baratayuda, Wismakerta, Sidemen, Karangasem, Bali, 80864",Wismakerta,Sidemen,Karangasem,Bali,80864,-8.4976768,115.4217353
297,"Dalem Temple, Kuwum",,"Kuwum, Mengwi, Badung, Bali, 80351",Kuwum,Mengwi,Badung,Bali,80351,-8.4549522,115.1878705
298,Danghyang Manik Angkeran,,"Alasangker, Buleleng, Buleleng, Bali, 81119",Alasangker,Buleleng,Buleleng,Bali,81119,-8.139123,115.129943
299,Danu raja,,"Desa Mancingan, Manukaya, Tampaksiring, Gianyar, Bali, 80552",Manukaya,Tampaksiring,Gianyar,Bali,80552,-8.4223409,115.3175412
300,Desa adar darmaji,,"Desa adat darmaji, Ban, Kubu, Karangasem, Bali, 80853",Ban,Kubu,Karangasem,Bali,80853,-8.2651921,115.4686347
301,Desa Adat Bugbugan,,"Senganan, Penebel, Tabanan, Bali, 82191",Senganan,Penebel,Tabanan,Bali,82191,-8.3588994,115.1528298
302,Desa Adat Tanglad,,"Tanglad, Nusa Penida, Klungkung, Bali, 80771",Tanglad,Nusa Penida,Klungkung,Bali,80771,-8.7729643,115.5846688
303,Desa Katilantan,,"Singakerta, Ubud, Gianyar, Bali, 80571",Singakerta,Ubud,Gianyar,Bali,80571,-8.5204495,115.2544741
304,Desa pakraman munduk ulan,,"Jl. Raya Jelijih - Munduk ulan, Tegal Mengkeb, Selemadeg Timur, Tabanan, Bali, 82162",Tegal Mengkeb,Selemadeg Timur,Tabanan,Bali,82162,-8.5195697,115.039032
305,Desa Pura,,"Sayan, Ubud, Gianyar, Bali, 80571",Sayan,Ubud,Gianyar,Bali,80571,-8.5102849,115.2502728
306,Desa Pura Favorit,,"Sayan, Ubud, Gianyar, Bali, 80571",Sayan,Ubud,Gianyar,Bali,80571,-8.5106403,115.2504323
307,Desa Puseh Negari Temple,,"Singapadu, Sukawati, Gianyar, Bali, 80582",Singapadu,Sukawati,Gianyar,Bali,80582,-8.5738109,115.2572264
308,Dewa Manik Temple,,"Songan A, Kintamani, Bangli, Bali, 80652",Songan A,Kintamani,Bangli,Bali,80652,-8.2141553,115.385325
309,Dharma putra sekar sandat,,"Beraban, Kediri, Tabanan, Bali, 80351",Beraban,Kediri,Tabanan,Bali,80351,-8.6156581,115.1094476
310,Di Merajan,,"Bakas, Banjarangkan, Klungkung, Bali, 80752",Bakas,Banjarangkan,Klungkung,Bali,80752,-8.5183191,115.3656594
311,Di Timur Pohon Beringin,,"Kedisan, Tegallalang, Gianyar, Bali, 80561",Kedisan,Tegallalang,Gianyar,Bali,80561,-8.4163916,115.2990993
312,D'Lord Dalem,,"Jl. Yoga Perkanthi No.2, Jimbaran, Kuta Selatan, Badung, Bali, 80361",Jimbaran,Kuta Selatan,Badung,Bali,80361,-8.7724536,115.1710291
313,DMSTU,,"Lukluk, Mengwi, Badung, Bali, 80351",Lukluk,Mengwi,Badung,Bali,80351,-8.5822677,115.1945871
314,Dukuh Cedug,,"Seraya, Karangasem, Karangasem, Bali, 80811",Seraya,Karangasem,Karangasem,Bali,80811,-8.4260058,115.6566827
315,Dukuh Kali Asem,,"Unnamed Road, 80811, Seraya, Karangasem, Karangasem, Bali, 80811",Seraya,Karangasem,Karangasem,Bali,80811,-8.4158009,115.6653728
316,DUKUH LATENG,,"Seraya, Karangasem, Karangasem, Bali, 80811",Seraya,Karangasem,Karangasem,Bali,80811,-8.4253862,115.6713242
317,Dukuh Moding,,"Banjar Dinas Taman, Seraya, Karangasem, Karangasem, Bali, 80811",Seraya,Karangasem,Karangasem,Bali,80811,-8.4135598,115.6648082
318,DUKUH SELULUNG,,"Tajun, Kubutambahan, Buleleng, Bali, 81172",Tajun,Kubutambahan,Buleleng,Bali,81172,-8.1376265,115.2535105
319,DUKUH SRI ASIH BUNUTAN SERAYA TENGAH,,"Seraya, Karangasem, Seraya, Karangasem, Karangasem, Bali, 80811",Seraya,Karangasem,Karangasem,Bali,80811,-8.4182521,115.6696191
320,Dwipayana,Sanggah,"Unnamed Road, Ban, Kubu, Karangasem, Bali, 80853",Ban,Kubu,Karangasem,Bali,80853,-8.2557651,115.4955434
321,Eka,Sanggah,"Unnamed Road, Sebudi, Selat, Karangasem, Bali, 80862",Sebudi,Selat,Karangasem,Bali,80862,-8.3810772,115.4777653
322,Enjekan Gajah,,"Padang Bulia, Sukasada, Buleleng, Bali",Padang Bulia,Sukasada,Buleleng,Bali,0,-8.1568626,115.1208723
323,Enjung Galuh Temple,,"Beraban, Kediri, Tabanan, Bali, 82121",Beraban,Kediri,Tabanan,Bali,82121,-8.6196602,115.0862414
324,family temple Dewa Ayu,Sanggah,"Gang Lebong,, Menyali, Sawan, Buleleng, Bali, 81171",Menyali,Sawan,Buleleng,Bali,81171,-8.1106872,115.1484796
325,Fish pond,,"Unnamed Road, Manukaya, Tampaksiring, Gianyar, Bali, 80552",Manukaya,Tampaksiring,Gianyar,Bali,80552,-8.4147933,115.3157351
326,Gang Dauh Pura Puseh,,"Sulahan, Susut, Bangli, Bali, 80661",Sulahan,Susut,Bangli,Bali,80661,-8.4163073,115.3414987
327,Gate of Heaven Lempuyang Temple,,"Br, Jl. Raya Silakarang Singapadu Kaler, Singapadu Kaler, Abang, Karangasem, Bali, 80852",Singapadu Kaler,Abang,Karangasem,Bali,80852,-8.3908054,115.6293939
328,Gauranga Bali Isvara Center,,"Bukit, Karangasem, Karangasem, Bali, 80811",Bukit,Karangasem,Karangasem,Bali,80811,-8.4229004,115.6301704
329,Gedong Keluarga Bukit Catu,,"Jl. Pura Bukit Catu No.Desa, Songan A, Kintamani, Bangli, Bali, 80652",Songan A,Kintamani,Bangli,Bali,80652,-8.2298247,115.392179
330,Gedung Werdhi Guna,,"Penuktukan, Tejakula, Buleleng, Bali, 81173",Penuktukan,Tejakula,Buleleng,Bali,81173,-8.1423623,115.3863359
331,"Genah Melukat, Pura Tirta Empul Apuan, Bangli",,"gang Pura Tirta, Jl. Desa Apuan, Apuan, Susut, Bangli, Bali, 80661",Apuan,Susut,Bangli,Bali,80661,-8.4776844,115.3285262
332,Genah Sesari,,"Jl. Setra, Antiga Kelod, Manggis, Karangasem, Bali, 80871",Antiga Kelod,Manggis,Karangasem,Bali,80871,-8.53649,115.489375
333,GEPAH TEMPLE,,"Jl. Telaga Sakti Banjar Adegan Kangin, Ped, Nusapenida, Klungkung, Bali, 80771",Ped,Nusapenida,Klungkung,Bali,80771,-8.7027508,115.5095518
334,Geria Batu Aji,,"Jl. Raya Besakih Gang Geria, Akah, Klungkung, Klungkung, Bali, 80716",Akah,Klungkung,Klungkung,Bali,80716,-8.5185778,115.4026553
335,Geria Bhuwana Magelung Pasraman Wira Satyam,,"Busungbiu, Buleleng, Bali, 81154",0,Busungbiu,Buleleng,Bali,81154,-8.256347,114.966508
336,Geria Celagi Kediri Payangan,,"Jl. Raya Payangan, Melinggih, Payangan, Gianyar, Bali, 80572",Melinggih,Payangan,Gianyar,Bali,80572,-8.4246671,115.2466911
337,Geria Dalem Sibanggede,,"Sibang Gede, Abiansemal, Badung, Bali, 80352",Sibang Gede,Abiansemal,Badung,Bali,80352,-8.573289,115.218515
338,Geria manuaba Tuakilang tabanan,,"Jl. Batukaru No.64, Denbantas, Tabanan, Tabanan, Bali, 82115",Denbantas,Tabanan,Tabanan,Bali,82115,-8.5176082,115.1298904
339,Geria Pidada Sidemen,,"Sindu Wati, Sidemen, Karangasem, Bali, 80864",Sindu Wati,Sidemen,Karangasem,Bali,80864,-8.4598605,115.4492635
340,Geria Suniawati,,"Bedulu, Blahbatuh, Gianyar, Bali, 80581",Bedulu,Blahbatuh,Gianyar,Bali,80581,-8.5271065,115.305134
341,Geria Wayah ANGMAS,,"Unnamed Road, Tanglad, Nusapenida, Klungkung, Bali, 80771",Tanglad,Nusapenida,Klungkung,Bali,80771,-8.772505,115.5836636
342,Geriya Gede Batutabih,,"Jl. Raya Batu Tabih No.43, Takmung, Banjarankan, Klungkung, Bali, 80716",Takmung,Banjarankan,Klungkung,Bali,80716,-8.545282,115.3931436
343,Geriya Giri Amla Kusuma,,"Jl. Bhayangkara No.15, Karangasem, Karangasem, Karangasem, Bali, 80811",Karangasem,Karangasem,Karangasem,Bali,80811,-8.4512361,115.6163433
344,Geriya Hyangapi,,"Jl. Kalantaka, Sampiang, Gianyar, Gianyar, Bali, 80511",Sampiang,Gianyar,Gianyar,Bali,80511,-8.5373949,115.3316993
345,GERIYA SARI,,"Jl. Mandalawangi No.78, Pemecutan Klod, Denpasar Barat, Kota Denpasar, Bali, 80112",Pemecutan Klod,Denpasar Barat,Kota Denpasar,Bali,80112,-8.6635851,115.2091996
346,Gg Nusa Indah.,,"Jl. Penatahan - Wongayagede, Wongaya Gede, Penebel, Tabanan, Bali, 82152",Wongaya Gede,Penebel,Tabanan,Bali,82152,-8.3953498,115.1135411
347,Giriya Dalem Mandhara Giri,,"Jl. Raya Seseh, Munggu, Mengwi, Badung, Bali, 80351",Munggu,Mengwi,Badung,Bali,80351,-8.6273749,115.1230811
348,Griya merta sari,,"Jl. Brahmana, Sangeh, Abiansemal, Badung, Bali, 80352",Sangeh,Abiansemal,Badung,Bali,80352,-8.4865109,115.205957
349,Gn. Anyar,,"Unnamed Road, Pejukutan, Nusapenida, Klungkung, Bali, 80771",Pejukutan,Nusapenida,Klungkung,Bali,80771,-8.7488502,115.5752324
350,Goa pura tibu meguwa,,"Babahan, Penebel, Tabanan, Bali, 82152",Babahan,Penebel,Tabanan,Bali,82152,-8.3781885,115.1446474
351,Goa Raksasa Sanggulan,,"Banjar Anyar, Kediri, Tabanan, Bali, 82121",Banjar Anyar,Kediri,Tabanan,Bali,82121,-8.5491867,115.1308229
352,Goa Tapasiddhi Tohlangkir,,"Dukuh, Kubu, Karangasem, Bali, 80853",Dukuh,Kubu,Karangasem,Bali,80853,-8.3054224,115.5434198
353,Gria Ageng Dencarik,Griya,"Dencarik, Banjar, Buleleng, Bali, 81152",Dencarik,Banjar,Buleleng,Bali,81152,-8.1955232,114.971622
354,Gria Anyar Bakas,Griya,"Bakas, Banjarangkan, Klungkung, Bali, 80752",Bakas,Banjarangkan,Klungkung,Bali,80752,-8.5203211,115.3613407
355,Gria Gede Bakas,Griya,"Unnamed Road, Bakas, Banjarangkan, Klungkung, Bali, 80752",Bakas,Banjarangkan,Klungkung,Bali,80752,-8.5202754,115.3620911
356,Gria Gede Simpangan Buduk,Griya,"Jl. Raya Buduk No.44, Buduk, Mengwi, Badung, Bali, 80351",Buduk,Mengwi,Badung,Bali,80351,-8.6046942,115.1616398
357,Gria Gede Taman Lukluk,Griya,"Lukluk, Mengwi, Badung, Bali, 80351",Lukluk,Mengwi,Badung,Bali,80351,-8.58607,115.1879767
358,Gria Ida Rci Mandala Giri,Griya,"Jl. Sriwijaya, Cempaga, Bangli, Bangli, Bali, 80613",Cempaga,Bangli,Bangli,Bali,80613,-8.4419001,115.3570559
359,Gria kusara taman sari,Griya,"Batuagung, Jembrana, Jembrana, Bali, 82218",Batuagung,Jembrana,Jembrana,Bali,82218,-8.3449881,114.645269
360,Gria Manik Segara,Griya,"Darmasaba, Abiansemal, Badung, Bali, 80238",Darmasaba,Abiansemal,Badung,Bali,80238,-8.5954765,115.2120385
361,Gria Taman Gesing Giri Ashrama,Griya,"Gesing, Banjar, Buleleng, Bali, 81161",Gesing,Banjar,Buleleng,Bali,81161,-8.2746408,115.0534928
362,GRIA TEMUKU AYA SARI,Griya,"Jl. Plawa, Balair Balai Agung, Negara, Jembrana, Bali, 82218",Balair Balai Agung,Negara,Jembrana,Bali,82218,-8.348144,114.6211684
363,GRIA Tengah,Griya,"Sekartaji, Nusapenida, Klungkung, Bali, 80771",Sekartaji,Nusapenida,Klungkung,Bali,80771,-8.7747867,115.5542425
364,Griya,Griya,"Jl. Semarapura-Karangasem, Lokasari, Sidemen, Karangasem, Bali, 80864",Lokasari,Sidemen,Karangasem,Bali,80864,-8.5051188,115.4269405
365,Griya Ageng Kemenuh,Griya,"Gg. Griya II, Kemenuh, Sukawati, Gianyar, Bali, 80582",Kemenuh,Sukawati,Gianyar,Bali,80582,-8.5607863,115.2853206
366,"Griya Agung Giri Asuhan , Desa Pelapuan",Griya,"Pelapuan, Busungbiu, Buleleng, Bali, 81154",Pelapuan,Busungbiu,Buleleng,Bali,81154,-8.265643,114.992155
367,GRIYA AGUNG LINGGA MANIK KUSUMA,Griya,"Pertima, Karangasem, Karangasem, Bali, 80811",Pertima,Karangasem,Karangasem,Bali,80811,-8.4705802,115.5909854
368,Griya Agung Maha Nata Loka Panji,Griya,"Banjar Dinas tengah, desa, Lokapaksa, Seririt, Buleleng, Bali, 81153",Lokapaksa,Seririt,Buleleng,Bali,81153,-8.2055762,114.9225645
369,Griya Agung Mandhara Bencingah,Griya,"Unnamed Road, Munggu, Mengwi, Badung, Bali, 80351",Munggu,Mengwi,Badung,Bali,80351,-8.6195362,115.1271634
370,"Griya Agung Menua, Mengening Nyitdah, Kediri Tabanan",Griya,"Belalang, Kediri, Tabanan, Bali, 82121",Belalang,Kediri,Tabanan,Bali,82121,-8.5870678,115.1087748
371,Griya Agung Mutering Jagat,Griya,"Jl. Sarang Burung, Lembongan, Nusapenida, Klungkung, Bali, 80771",Lembongan,Nusapenida,Klungkung,Bali,80771,-8.7058419,115.4409912
372,Griya Agung Nila Sraya,Griya,"Banjar Sala, Pejeng Kawan, Tampaksiring, Gianyar, Bali, Pejeng Kawan, Tampaksiring, Gianyar, Bali, 80552",Pejeng Kawan,Tampaksiring,Gianyar,Bali,80552,-8.5073365,115.2814239
373,Griya Agung Wiram Ageni Manuaba,Griya,"Pangkung Karung, Kerambitan, Tabanan, Bali, 82115",Pangkung Karung,Kerambitan,Tabanan,Bali,82115,-8.5515029,115.0903363
374,Griya Akah,Griya,"Akah, Klungkung, Klungkung, Bali, 80716",Akah,Klungkung,Klungkung,Bali,80716,-8.518596,115.4029717
375,Griya Andakasa,Griya,"Jl. Giri Wisma No.14, Besan, Dawan, Klungkung, Bali, 80761",Besan,Dawan,Klungkung,Bali,80761,-8.528812,115.44469
376,Griya Anom,Griya,"Munggu, Mengwi, Badung, Bali, 80351",Munggu,Mengwi,Badung,Bali,80351,-8.6131928,115.1316417
377,Griya Anom Manuaba,Griya,"Batuagung, Jembrana, Jembrana, Bali, 82218",Batuagung,Jembrana,Jembrana,Bali,82218,-8.3559079,114.6465894
378,Griya anom sibang,Griya,"Sibang Gede, Abiansemal, Badung, Bali, 80352",Sibang Gede,Abiansemal,Badung,Bali,80352,-8.5740452,115.2191397
379,Griya Anyar Batur Sengguan _ Ida Rsi Bhujangga Waisnawa,Griya,"Jl. Mangku Giweng, Gianyar, Gianyar, Gianyar, Bali, 80511",Gianyar,Gianyar,Gianyar,Bali,80511,-8.5383714,115.3316382
380,Griya Bayuh Mundeh,Griya,"Nyambu, Kediri, Tabanan, Bali, 82121",Nyambu,Kediri,Tabanan,Bali,82121,-8.5809313,115.1391597
381,Griya Bhujangga Waisnawa Surya Hening,Griya,"Bukian, Payangan, Gianyar, Bali, 80572",Bukian,Payangan,Gianyar,Bali,80572,-8.4117585,115.2630954
382,Griya Budha Jadi,Griya,"Banjar Anyar, Kediri, Tabanan, Bali, 82123",Banjar Anyar,Kediri,Tabanan,Bali,82123,-8.5228335,115.1429949
383,"Griya Budha Jelantik, Kekeran, Buleleng",Griya,"Jl. Gajah Mada, Kekeran, Busungbiu, Buleleng, Bali, 81154",Kekeran,Busungbiu,Buleleng,Bali,81154,-8.2680605,114.9726654
384,Griya Bukit Catu,Griya,"Unnamed Road, 80871, Selumbung, Manggis, Karangasem, Bali, 80871",Selumbung,Manggis,Karangasem,Bali,80871,-8.4813729,115.5297369
385,Griya Bukit Kemenuh,Griya,"Banjar, Buleleng, Bali, 81152",0,Banjar,Buleleng,Bali,81152,-8.2055995,114.9618347
386,Griya bukit koi surya darma,Griya,"Unnamed Road, Cempaga, Bangli, Bangli, Bali, 80613",Cempaga,Bangli,Bangli,Bali,80613,-8.4406907,115.3560793
387,Griya Carik Sidemen Karangasem,Griya,"Jl. Wangsean - Klungah, Wismakerta, Sidemen, Karangasem, Bali, 80864",Wismakerta,Sidemen,Karangasem,Bali,80864,-8.4909082,115.4279497
388,Griya Dalem Wisesa,Griya,"Gg. BK. Tumpeng, Munggu, Mengwi, Badung, Bali, 80351",Munggu,Mengwi,Badung,Bali,80351,-8.6181698,115.1189023
389,Griya Dauh Ancak,Griya,"Jl. Pantai Kelating, Kelating, Kerambitan, Tabanan, Bali, 82161",Kelating,Kerambitan,Tabanan,Bali,82161,-8.5655645,115.0640319
390,Griya Dauh Taman Sari,Griya,"Tulikup, Gianyar, Bali, 80515",0,Tulikup,Gianyar,Bali,80515,-8.548142,115.3588459
391,Griya Gde Mas Timbul Peguyangan,Griya,"Gg. Pisang, Peguyangan Kaja, Denpasar Utara, Kota Denpasar, Bali, 80238",Peguyangan Kaja,Denpasar Utara,Kota Denpasar,Bali,80238,-8.6054477,115.2218034
392,Griya Gede Bedulu,Griya,"Batuagung, Jembrana, Jembrana, Bali, 82218",Batuagung,Jembrana,Jembrana,Bali,82218,-8.3562981,114.6465508
393,Griya Gede Bongkasa,Griya,"Bongkasa, Abiansemal, Badung, Bali, 80352",Bongkasa,Abiansemal,Badung,Bali,80352,-8.4939258,115.2366049
394,Griya Gede Denkayu,Griya,"Werdi Bhuwana, Mengwi, Badung, Bali, 80351",Werdi Bhuwana,Mengwi,Badung,Bali,80351,-8.5264732,115.1729121
395,Griya Gede Kemenuh,Griya,"Kesiut, Kerambitan, Tabanan, Bali, 82152",Kesiut,Kerambitan,Tabanan,Bali,82152,-8.4830786,115.1088704
396,Griya Gede Kutri,Griya,"Central Singapadu, Sukawati, Gianyar, Bali, 80582",Central Singapadu,Sukawati,Gianyar,Bali,80582,-8.578777,115.257215
397,Griya Gede Mambal Manuaba Jembrana,Griya,"Jl. Taman Sari, Batuagung, Jembrana, Jembrana, Bali, 82218",Batuagung,Jembrana,Jembrana,Bali,82218,-8.3578393,114.6452874
398,Griya Gede Mandara Manuaba,Griya,"Jl. Raya Krasan No.2, Sedang, Abiansemal, Badung, Bali, 80352",Sedang,Abiansemal,Badung,Bali,80352,-8.567418,115.235513
399,Griya Gede Mas Jembrana,Griya,"Batuagung, Jembrana, Jembrana, Bali, 82218",Batuagung,Jembrana,Jembrana,Bali,82218,-8.3567226,114.6465141
400,Griya Gede Pedanda Putra Tembau,Griya,"Aan, Banjarangkan, Klungkung, Bali, 80716",Aan,Banjarangkan,Klungkung,Bali,80716,-8.5067074,115.3818475
401,Griya gede penarukan,Griya,"Penarukan, Buleleng, Buleleng, Bali, 81119",Penarukan,Buleleng,Buleleng,Bali,81119,-8.1053004,115.1193245
402,Griya Gede Sangeh,Griya,"Jl. Ciung Wanara No.18, Sangeh, Abiansemal, Badung, Bali, 80352",Sangeh,Abiansemal,Badung,Bali,80352,-8.4885061,115.2105539
403,Griya Gede Sidembunut,Griya,"Jl. Taman Sari No.9, Cempaga, Bangli, Bangli, Bali, 80613",Cempaga,Bangli,Bangli,Bali,80613,-8.4453965,115.3705502
404,Griya Gede Silalan Bangli,Griya,"Jl. Merdeka No.8, Taman Bali, Bangli, Bangli, Bali, 80614",Taman Bali,Bangli,Bangli,Bali,80614,-8.4883217,115.3497458
405,Griya Gede Suci Kemenuh,Griya,"Jl. Gn. Sekar, Mendoyo Dauh Tukad, Mendoyo, Jembrana, Bali, 82261",Mendoyo Dauh Tukad,Mendoyo,Jembrana,Bali,82261,-8.3641279,114.6690951
406,Griya Gede Wayahan Buruan,Griya,"Jl. Raya Buruan, Buruan, Blahbatuh, Gianyar, Bali, 80581",Buruan,Blahbatuh,Gianyar,Bali,80581,-8.5407049,115.3026811
407,Griya Gegelang Kemenuh Marga,Griya,"Marga, Tabanan, Bali, 82181",0,Marga,Tabanan,Bali,82181,-8.4722012,115.1671018
408,Griya Giri Anggrek Amertha (Pandita Mpu),Griya,"Yeh Embang Kauh, Mendoyo, Jembrana, Bali, 82261",Yeh Embang Kauh,Mendoyo,Jembrana,Bali,82261,-8.3724955,114.7423955
409,Griya Jenggala Banjarangkan,Griya,"Banjarangkan, Klungkung, Bali, 80752",0,Banjarangkan,Klungkung,Bali,80752,-8.5522048,115.3791043
410,GRIYA JIMBAR GIRI SARI,Griya,"Jl. Pucuk Sari, Berangbang, Negara, Jembrana, Bali, 82218",Berangbang,Negara,Jembrana,Bali,82218,-8.3028824,114.6004735
411,Griya Kawan,Griya,"Jl. Maruti, Keramas, Blahbatuh, Gianyar, Bali, 80581",Keramas,Blahbatuh,Gianyar,Bali,80581,-8.5737674,115.3270983
412,Griya Kawan Manuaba Apuan,Griya,"Jalan Pura Tirta, Apuan, Susut, Bangli, Bali, 80661",Apuan,Susut,Bangli,Bali,80661,-8.4768922,115.3290095
413,Griya Kekeran Anyar,Griya,"Belega, Blahbatuh, Gianyar, Bali, 80581",Belega,Blahbatuh,Gianyar,Bali,80581,-8.5694567,115.3085788
414,Griya Kemenuh Balair Telabah,Griya,"Jl. Raja Ida Made Rai, Banjar, Banjar, Buleleng, Bali, 81152",Banjar,Banjar,Buleleng,Bali,81152,-8.2030393,114.9634601
415,Griya Kertha Taman Jati Baluk,Griya,"Jl. Nakula, Baluk, Negara, Jembrana, Bali, 82218",Baluk,Negara,Jembrana,Bali,82218,-8.3573443,114.5759567
416,Griya Ketugtug,Griya,"Jl. Gn. Agung, Loloan Timur, Jembrana, Jembrana, Bali, 82218",Loloan Timur,Jembrana,Jembrana,Bali,82218,-8.362859,114.625168
417,Griya Koulubyawu,Griya,"Muncan, Selat, Karangasem, Bali, 80862",Muncan,Selat,Karangasem,Bali,80862,-8.4251866,115.445949
418,Griya Kusara Kemenuh,Griya,"Batuagung, Jembrana, Jembrana, Bali, 82218",Batuagung,Jembrana,Jembrana,Bali,82218,-8.3524613,114.6447012
419,Griya MAMBAL,Griya,"Batuagung, Jembrana, Jembrana, Bali, 82218",Batuagung,Jembrana,Jembrana,Bali,82218,-8.357881,114.6450658
420,Griya Manuaba Lebah Bukian,Griya,"Banjar Lebah B, Bukian, Payangan, Gianyar, Bali, 80572",Bukian,Payangan,Gianyar,Bali,80572,-8.405315,115.2595825
421,Griya Mas Blahkiuh,Griya,"Jl. Sutomo, Blahkiuh, Abiansemal, Badung, Bali, 80352",Blahkiuh,Abiansemal,Badung,Bali,80352,-8.509909,115.207084
422,Griya Mas Dalem Segara,Griya,"Jl. Cangkupan, Sading, Mengwi, Badung, Bali, 80115",Sading,Mengwi,Badung,Bali,80115,-8.6114429,115.1968509
423,Griya Mas Intaran,Griya,"Jl. Raja Ida Made Rai, Banjar, Banjar, Buleleng, Bali, 81152",Banjar,Banjar,Buleleng,Bali,81152,-8.2051897,114.9619896
424,GRIYA MAYTRI MAHIRENG,Griya,"Bayung Gede, Kintamani, Bangli, Bali, 80652",Bayung Gede,Kintamani,Bangli,Bali,80652,-8.3032129,115.3395457
425,Griya Meranggi,Griya,"Banjar dangin Jl. di, Kelating, Kerambitan, Tabanan, Bali, 82161",Kelating,Kerambitan,Tabanan,Bali,82161,-8.5673191,115.0641122
426,Griya Padangan,Griya,"Jl. Kb. Padangan, Padangan, Pupuan, Tabanan, Bali, 82163",Padangan,Pupuan,Tabanan,Bali,82163,-8.3577341,115.0130307
427,Griya Pande Taman Bali,Griya,"Taman Bali, Bangli, Bangli, Bali, 80614",Taman Bali,Bangli,Bangli,Bali,80614,-8.5006278,115.3473559
428,Griya pandita agni yoga nanda undisan,Griya,"Undisan, Tembuku, Bangli, Bali",Undisan,Tembuku,Bangli,Bali,0,-8.4479174,115.3958862
429,Griya Pasek Banjar Abing,Griya,"Sulangai, Petang, Badung, Bali, 80353",Sulangai,Petang,Badung,Bali,80353,-8.3584387,115.2136921
430,Griya pesraman desa Tojan Blahbatuh,Griya,"Unnamed Road, Belega, Blahbatuh, Gianyar, Bali, 80581",Belega,Blahbatuh,Gianyar,Bali,80581,-8.5716695,115.3109755
431,Griya Punia Sari,Griya,"Jl. Patih Jelantik, Batuagung, Jembrana, Jembrana, Bali, 82218",Batuagung,Jembrana,Jembrana,Bali,82218,-8.341201,114.646276
432,Griya putra dalem jembrana,Griya,"Griya putra dalem, Ekasari, Melaya, Jembrana, Bali, 82252",Ekasari,Melaya,Jembrana,Bali,82252,-8.2580606,114.5311573
433,Griya Putra Mandara Gede Pemaron,Griya,"Selat, Abiansemal, Badung, Bali, 80352",Selat,Abiansemal,Badung,Bali,80352,-8.4844298,115.2175986
434,Griya Sakti Asita Manik Mas,Griya,"Jl. Bedil No.14, Baha, Mengwi, Badung, Bali, 80351",Baha,Mengwi,Badung,Bali,80351,-8.5171097,115.1873399
435,Griya Sari Giri Panida,Griya,"Jl. Padangan, Padangan, Pupuan, Tabanan, Bali, 82163",Padangan,Pupuan,Tabanan,Bali,82163,-8.3569402,115.0089711
436,Griya Sila Purwa Bhuana Kerti,Griya,"Jl. Raya Besakih, Tegak, Dusun Tengah, Klungkung, Bali, 80716",Tegak,Dusun Tengah,Klungkung,Bali,80716,-8.4932817,115.4073665
437,GRIYA SIMPANGAN ENDUT MANUABA TEMPLE,Griya,"Batu Mekar, Lingsar, Lombok Barat, NTB 83371",Batu Mekar,Lingsar,Lombok Barat,NTB ,83371,-8.5581959,116.205391
438,Griya Suci Giri Sakti,Griya,"Gg. Nuansa No.11, Sanur Kaja, Denpasar Selatan, Kota Denpasar, Bali, 80237",Sanur Kaja,Denpasar Selatan,Kota Denpasar,Bali,80237,-8.6690048,115.2526432
439,Griya sunia manik tirta,Griya,"Sulanyah, Seririt, Buleleng, Bali, 81152",Sulanyah,Seririt,Buleleng,Bali,81152,-8.1867212,114.9436766
440,GRIYA TALIBENG Ida Pedanda GEDE DWIJA KEMENUH,Griya,"Talibeng, Sidemen, Karangasem, Bali, 80864",Talibeng,Sidemen,Karangasem,Bali,80864,-8.4995702,115.4340151
441,Griya Taman Kusa,Griya,"Jl. Abianlalang, Wanasari, Tabanan, Tabanan, Bali, 82181",Wanasari,Tabanan,Tabanan,Bali,82181,-8.4978697,115.138163
442,Griya Taman Kusuma Dewa,Griya,"Tri Eka Buana, Sidemen, Karangasem, Bali, 80864",Tri Eka Buana,Sidemen,Karangasem,Bali,80864,-8.4969466,115.452348
443,Griya Tangkas Kori Agung Tukad Saang,Griya,"Unnamed Road, Pejukutan, Nusapenida, Klungkung, Bali, 80771",Pejukutan,Nusapenida,Klungkung,Bali,80771,-8.7499401,115.5727095
444,Griya Tegal Harum Kaba Kaba,Griya,"Buwit, Kediri, Tabanan, Bali, 82121",Buwit,Kediri,Tabanan,Bali,82121,-8.6003482,115.1274489
445,Griya Tegal Sari Manuaba Sangeh,Griya,"Jl. Paninjauan, Sangeh, Abiansemal, Badung, Bali, 80352",Sangeh,Abiansemal,Badung,Bali,80352,-8.4926956,115.205723
446,"Griya Tengah Wanasari Tabanan, Bali.",Griya,"Jl. Batukaru No.36, Wanasari, Tabanan, Tabanan, Bali, 82181",Wanasari,Tabanan,Tabanan,Bali,82181,-8.4876386,115.1350792
447,Griya Tubuh,Griya,"Jl. Giri Wisma No.14, Dawan Kaler, Dawan, Klungkung, Bali, 80761",Dawan Kaler,Dawan,Klungkung,Bali,80761,-8.5242254,115.4465259
448,Griya Uma ?anthi,Griya,"Bitera, Gianyar, Bali, 80515",0,Bitera,Gianyar,Bali,80515,-8.5310425,115.3175107
449,Griya Wana Giri Kusuma,Griya,"Bjr. md kendung, Berangbang, Negara, Jembrana, Bali, 82218",Berangbang,Negara,Jembrana,Bali,82218,-8.2960325,114.5938125
450,Grya Aji Parta,Griya,"Candikusuma, Melaya, Jembrana, Bali",Candikusuma,Melaya,Jembrana,Bali,0,-8.3020698,114.5216885
451,Grya Alit Wanengpati,Griya,"Jagaraga, Sawan, Buleleng, Bali, 81171",Jagaraga,Sawan,Buleleng,Bali,81171,-8.1096748,115.1635281
452,Grya Anyar,Griya,"Jl. Batukaru No.48, Wanasari, Tabanan, Tabanan, Bali, 82181",Wanasari,Tabanan,Tabanan,Bali,82181,-8.4861832,115.1352173
453,Grya Batu Lumbang,Griya,"Jl. Raya Sibanggede, Sibang Gede, Abiansemal, Badung, Bali, 80352",Sibang Gede,Abiansemal,Badung,Bali,80352,-8.5730116,115.2188179
454,Grya batur lebah,Griya,"Berembeng, Selemadeg, Tabanan, Bali, 82162",Berembeng,Selemadeg,Tabanan,Bali,82162,-8.5102627,115.0283196
455,Grya candikusuma,Griya,"Jl. Madura, Candikusuma, Melaya, Jembrana, Bali, 82252",Candikusuma,Melaya,Jembrana,Bali,82252,-8.3026366,114.5226709
456,Grya Gede Andakasa Giri Kemenuh,Griya,"Jl. Giri Wisma No.14, Dawan Kaler, Dawan, Klungkung, Bali, 80761",Dawan Kaler,Dawan,Klungkung,Bali,80761,-8.5291188,115.4446659
457,Grya Gede Dawan Kelod,Griya,"Gg. Arjuna, Dawan Klod, Dawan, Klungkung, Bali, 80761",Dawan Klod,Dawan,Klungkung,Bali,80761,-8.538195,115.4451634
458,Grya Pande Taman Tigaron,Griya,"Jl. Gn. Sekar, Mendoyo Dauh Tukad, Mendoyo, Jembrana, Bali, 82261",Mendoyo Dauh Tukad,Mendoyo,Jembrana,Bali,82261,-8.362594,114.6702172
459,Grya Sila Giri Bualu,Griya,"Benoa, South Kuta, Badung, Bali, 80361",Benoa,South Kuta,Badung,Bali,80361,-8.7917134,115.2101605
460,Grya Sila Purwa Bhuana Kerti,Griya,"Tegak, Klungkung, Klungkung, Bali, 80716",Tegak,Klungkung,Klungkung,Bali,80716,-8.4944116,115.404307
461,Pura Alas Gumang Catur Paiguman,,"Banjar Penempahan, Manukaya, Tampaksiring, Gianyar, Bali, 80552",Manukaya,Tampaksiring,Gianyar,Bali,80552,-8.3954082,115.3180823
462,Gunung Agung Temple,,"Peguyangan, North Denpasar, Kota Denpasar, Bali, 80233",Peguyangan,Denpasar Utara,Kota Denpasar,Bali,80233,-8.6329786,115.2145186
463,Gunung Kawi Sebatu,,"Sebatu, Tegallalang, Gianyar, Bali, 80511",Sebatu,Tegallalang,Gianyar,Bali,80511,-8.4046433,115.2934603
464,Gunung Pengelengan,,"Wanagiri, Sukasada, Buleleng, Bali, 82191",Wanagiri,Sukasada,Buleleng,Bali,82191,-8.2466568,115.1866636
465,Gunung Pengsong,,"Kuranji, Labuapi, Lombok Barat, NTB 83361",Kuranji,Labuapi,Lombok Barat,NTB,83361,-8.6416539,116.0858013
466,Gunung Sari Temple,,"Penarungan, Mengwi, Badung, Bali, 80352",Penarungan,Mengwi,Badung,Bali,80352,-8.5381605,115.1981615
467,Hair Penataran Shiwi,,"Unnamed Road, Buahan, Payangan, Gianyar, Bali, 80572",Buahan,Payangan,Gianyar,Bali,80572,-8.4095105,115.2310199
468,Hillside Temple and Viewpoint,,"Tanglad, Nusapenida, Klungkung, Bali, 80771",Tanglad,Nusapenida,Klungkung,Bali,80771,-8.7853474,115.591838
469,Hindu Bali Temple,,"Pasar dukuh sari, Uluwatu St, Ungasan, South Kuta, Badung, Bali, 80361",Ungasan,South Kuta,Badung,Bali,80361,-8.8204223,115.1417328
470,Hindu temple,,"Kelusa, Payangan, Gianyar, Bali, 80561",Kelusa,Payangan,Gianyar,Bali,80561,-8.4667949,115.2565039
471,Holly temple,,"Jl. Banjar Dalem, Songan A, Kintamani, Bangli, Bali, 80652",Songan A,Kintamani,Bangli,Bali,80652,-8.2429179,115.3991922
472,House of Barbar Family,,"Jl. Pahlawan No.26, Ringdikit, Seririt, Buleleng, Bali, 81153",Ringdikit,Seririt,Buleleng,Bali,81153,-8.2198171,114.9398634
473,"Hutan Angker, Tengah Sawah.",,"Unnamed Road, Nyitdah, Kediri, Tabanan, Bali, 82121",Nyitdah,Kediri,Tabanan,Bali,82121,-8.5864989,115.1135686
474,ISKCON Bali (Denpasar) Jagannatha Gauranga Mandir,,"Jl. Tukad Balian No.108, Sidakarya, Denpasar Selatan, Kota Denpasar, Bali, 80227",Sidakarya,Denpasar Selatan,Kota Denpasar,Bali,80227,-8.7004239,115.2410627
475,ISKCON Sri-Sri Radha Kunjavihari Temple,,"Paksebali, Dawan, Klungkung, Bali, 80761",Paksebali,Dawan,Klungkung,Bali,80761,-8.5302384,115.4162442
476,Pura Dalem Desa Pakraman Penasan,Pura Dalem,"Tihingan, Banjarangkan, Klungkung, Bali, 80752",Tihingan,Banjarangkan,Klungkung,Bali,80752,-8.5356924,115.3830009
477,Jagatnatha Temple,Pura Jagatnatha,"Jl. Nusa Dua, Benoa, Kuta Selatan, Badung, Bali, 80361",Benoa,Kuta Selatan,Badung,Bali,80361,-8.7998671,115.2145002
478,Jagatnatha Temple Mayura,Pura Jagatnatha,"Jl. Tenun, Mayura, Cakranegara, Kota Mataram, NTB, 83121",Mayura,Cakranegara,Kota Mataram,NTB,83121,-8.5862314,116.1339916
479,Jelantik Banjar Tusan,,"Saba, Blahbatuh, Gianyar, Bali, 80581",Saba,Blahbatuh,Gianyar,Bali,80581,-8.5701876,115.2983456
480,Jelantik family,,"Gg. X No.22, Saba, Blahbatuh, Gianyar, Bali, 80581",Saba,Blahbatuh,Gianyar,Bali,80581,-8.570065,115.2985927
481,Jenggale Village,,"Jenggala, Tanjung, Lombok Utara, NTB 83362",Jenggala,Tanjung,Lombok Utara,NTB ,83362,-8.6240157,116.1823845
482,Jero Ageng Balairan Muncan,,"Jl. Gn. Agung, Muncan, Selat, Karangasem, Bali, 80862",Muncan,Selat,Karangasem,Bali,80862,-8.425796,115.445311
483,Jero Agung Temple,,"Ketewel, Sukawati, Gianyar, Bali, 80582",Ketewel,Sukawati,Gianyar,Bali,80582,-8.6276624,115.2885039
484,Jero Anom Kaba-kaba,,"Kaba-Kaba, Kediri, Tabanan, Bali, 82121",Kaba-Kaba,Kediri,Tabanan,Bali,82121,-8.5902295,115.1413667
485,Jero Anyar,,"Sedang, Abiansemal, Badung, Bali, 80352",Sedang,Abiansemal,Badung,Bali,80352,-8.5733477,115.2354576
486,Jero Arya Tan Wikan,,"Banjar Anyar, Kediri, Tabanan, Bali, 82123",Banjar Anyar,Kediri,Tabanan,Bali,82123,-8.5227292,115.1470778
487,Jero Banjar Perean,,"Jl. Dajan Prigi, Perean, Baturiti, Tabanan, Bali, 82191",Perean,Baturiti,Tabanan,Bali,82191,-8.4253411,115.1944818
488,Jero Dauh Dualang Sibanggede,,"Jl. Raya Sibanggede, Sibang Gede, Abiansemal, Badung, Bali, 80352",Sibang Gede,Abiansemal,Badung,Bali,80352,-8.57489,115.2177464
489,"Jero Dewa Ambara, Mengening Nyitdah Kediri",,"Unnamed Road, Nyitdah, Kediri, Tabanan, Bali, 82121",Nyitdah,Kediri,Tabanan,Bali,82121,-8.5856111,115.1140556
490,"Jero Dewa Ayu Bintang, Mengening Nyitdah, Kediri Tabanan",,"Jl. Dedela Nata, Nyitdah, Kediri, Tabanan, Bali, 82121",Nyitdah,Kediri,Tabanan,Bali,82121,-8.5836283,115.113403
491,Jero Gede Duwuran Kauh Satria Dalem Madura.,,"Jl. Mawar Banjar Sempidi No.04, Dauh Yeh Cani, Abiansemal, Badung, Bali, 80352",Dauh Yeh Cani,Abiansemal,Badung,Bali,80352,-8.5261462,115.2052101
492,Jero IGusti Agung Ngurah Sidemen,,"Unnamed Road, Sidemen, Karangasem, Bali, 80864",0,Sidemen,Karangasem,Bali,80864,-8.4649072,115.4491854
493,Jero Kangin Sempidi,,"Jl. Raya Sempidi, Sempidi, Mengwi, Badung, Bali, 80351",Sempidi,Mengwi,Badung,Bali,80351,-8.6112857,115.1913295
494,Jero Kawan Perean,,"Perean, Baturiti, Tabanan, Bali, 82191",Perean,Baturiti,Tabanan,Bali,82191,-8.4270084,115.1936346
495,Jero Kukuh Marga,,"Jl. Raya Marga-Apuan No.18, Marga Dajan Puri, Marga, Tabanan, Bali, 82181",Marga Dajan Puri,Marga,Tabanan,Bali,82181,-8.4657565,115.1698692
496,"Jero Made Suartana, Mengening Nyitdah, Kediri",,"Nyitdah, Kediri, Tabanan, Bali, 82121",Nyitdah,Kediri,Tabanan,Bali,82121,-8.5837583,115.1119923
497,Jero Mangku Netra,,"Unnamed Road, Tri Eka Buana, Sidemen, Karangasem, Bali, 80864",Tri Eka Buana,Sidemen,Karangasem,Bali,80864,-8.4973643,115.4540342
498,"Jero Ngurah Arjuna, Mengening Nyitdah, Kediri",,"Jl. Dedela Nata, Nyitdah, Kediri, Tabanan, Bali, 82121",Nyitdah,Kediri,Tabanan,Bali,82121,-8.5826934,115.1132692
499,Jero Selat ( Merajan Gede Arya Wang Bang Pinatih ),,"Samplangan, Gianyar, Bali, 80512",0,Samplangan,Gianyar,Bali,80512,-8.5264656,115.3338364
500,Jero Semingan Perean,,"Unnamed Road, Perean, Baturiti, Tabanan, Bali, 82191",Perean,Baturiti,Tabanan,Bali,82191,-8.4254153,115.1953804
501,"Jero Taman Danginan, Mengening Nyitdah, Kediri",,"Nyitdah, Kediri, Tabanan, Bali, 82121",Nyitdah,Kediri,Tabanan,Bali,82121,-8.5844647,115.1137637
502,"Jero Taman Tengah, Mengening Nyitdah, Kediri",,"Jl. Dedela Nata, Nyitdah, Kediri, Tabanan, Bali, 82121",Nyitdah,Kediri,Tabanan,Bali,82121,-8.5840848,115.113809
503,Jero Tapakan Don Yeh,,"Belanga, Kintamani, Bangli, Bali, 80652",Belanga,Kintamani,Bangli,Bali,80652,-8.2452332,115.2674339
504,Jero tbn,,"Unnamed Road, Dauh Peken, Tabanan, Tabanan, Bali, 82111",Dauh Peken,Tabanan,Tabanan,Bali,82111,-8.5482786,115.1105468
505,JERO ULAKAN,,"Unnamed Road, Ulakan, Manggis, Manggis, Karangasem, Bali, 80871",Manggis,Manggis,Karangasem,Bali,80871,-8.4983941,115.5067033
506,Jero Watu Ngandang,,"Jl. Raya Duda Timur, Pering Sari, Selat, Karangasem, Bali, 80862",Pering Sari,Selat,Karangasem,Bali,80862,-8.4321491,115.4633417
507,"Jero, Jro Dasaran Suardi, Mengening Nyitdah, Kediri",,"Nyitdah, Kediri, Tabanan, Bali, 82121",Nyitdah,Kediri,Tabanan,Bali,82121,-8.5859572,115.1136135
508,Jeroan Gede Mambal,,"Unnamed Road, Mambal, Abiansemal, Badung, Bali, 80352",Mambal,Abiansemal,Badung,Bali,80352,-8.5505126,115.2197096
509,Jeroan Gede Tegalinggah,,"Jl. Asem No.6, Sedang, Abiansemal, Badung, Bali, 80352",Sedang,Abiansemal,Badung,Bali,80352,-8.5733507,115.236566
510,Jeroan kaleran,,"Jl. Raya Sibanggede No.6, Sibang Gede, Abiansemal, Badung, Bali, 80352",Sibang Gede,Abiansemal,Badung,Bali,80352,-8.5764591,115.2168457
511,JL Ratna,,"Jl. Ratna, Penyaringan, Mendoyo, Jembrana, Bali, 82261",Penyaringan,Mendoyo,Jembrana,Bali,82261,-8.358357,114.732139
512,Jro Gede Bakungan Umabian,,"Jl. Bend. Tungkub No.22, Peken, Marga, Tabanan, Bali, 80351",Peken,Marga,Tabanan,Bali,80351,-8.5245157,115.1693961
513,Jro Gede Tuakilang,,"Jl. Batukaru No.12, Denbantas, Tabanan, Tabanan, Bali, 82115",Denbantas,Tabanan,Tabanan,Bali,82115,-8.5228873,115.1288035
514,Jro Kawan,,"Sibang Gede, Abiansemal, Badung, Bali, 80352",Sibang Gede,Abiansemal,Badung,Bali,80352,-8.5759446,115.2164823
515,Jro komang,,"Perumahan bumi sasih asri blok 2B nomor 20, Batubulan, Sukawati, Gianyar, Bali, 80237",Batubulan,Sukawati,Gianyar,Bali,80237,-8.6356271,115.2668572
516,Jro Lila Tuakilang Tabanan,,"Jl. Batukaru No.17, Denbantas, Tabanan, Tabanan, Bali, 82115",Denbantas,Tabanan,Tabanan,Bali,82115,-8.5228284,115.1284958
517,Jro Mangku Timpag - Nunasan Pluasan,,"Jl. Dewi Kunti, Timpag, Kerambitan, Tabanan, Bali, 82161",Timpag,Kerambitan,Tabanan,Bali,82161,-8.4962924,115.0924398
518,JRO PANDE,,"Jl. Desa Abuan No.18, Abuan, Susut, Bangli, Bali, 80661",Abuan,Susut,Bangli,Bali,80661,-8.4660909,115.3354069
519,Jroan Gede Getakan Arya Wang Bang Pinatih,,"Getakan, Banjarangkan, Klungkung, Bali, 80752",Getakan,Banjarangkan,Klungkung,Bali,80752,-8.5178164,115.3717004
520,Jual pakaian harga grosir,,"Jl. Raya Bedugul, Pancasari, Baturiti, Buleleng, Bali, 81161",Pancasari,Baturiti,Buleleng,Bali,81161,-8.2578439,115.1567075
521,jurangaya palace temple,,"Kutampi, Nusapenida, Klungkung, Bali, 80771",Kutampi,Nusapenida,Klungkung,Bali,80771,-8.7273533,115.5688873
522,Kadasa Tingkadbatu,,"Banjar Tingkadbatu, Jehem, Tembuku, Bangli, Bali, 80671",Jehem,Tembuku,Bangli,Bali,80671,-8.4496184,115.3802972
523,Kahyangan Dalem Serongga,,"Pangkung Karung, Kerambitan, Tabanan, Bali, 82161",Pangkung Karung,Kerambitan,Tabanan,Bali,82161,-8.5546201,115.0823435
524,Kahyangan Jagat Pura Teledu Nginyah,,"Gumbrih, Pekutatan, Jembrana, Bali, 82262",Gumbrih,Pekutatan,Jembrana,Bali,82262,-8.4359369,114.8722762
525,Kahyangan Taman Suci Gunung Canang Sari,,"Sibang Kaja, Abiansemal, Badung, Bali, 80352",Sibang Kaja,Abiansemal,Badung,Bali,80352,-8.5672217,115.2238683
526,Kantor Desa Cemagi,,"Cemagi, Mengwi, Cemagi, Badung, Badung, Bali, 80351",Cemagi,Mengwi,Badung,Bali,80351,-8.6312005,115.1151942
527,Karang wayah padangbai / suana,,"Suana, Nusapenida, Klungkung, Bali, 80771",Suana,Nusapenida,Klungkung,Bali,80771,-8.7281665,115.5978533
528,Kawitan antap,,"Unnamed Road, Tianyar Tengah, Kubu, Karangasem, Bali, 80853",Tianyar Tengah,Kubu,Karangasem,Bali,80853,-8.2237532,115.450277
529,Kawitan Arya Pring,,"Kamasan, Klungkung, Klungkung, Bali, 80716",Kamasan,Klungkung,Klungkung,Bali,80716,-8.5501091,115.4060759
530,Kawitan Arya Tegeh Kori,,"Banjar Munggu, Mengwi, Mengwi, Badung, Bali, 80351",Mengwi,Mengwi,Badung,Bali,80351,-8.5386784,115.1686075
531,Kawitan ARYA TEGEH KORI Pendem,,"Jl. Raya Desa, Menyali, Sawan, Buleleng, Bali, 81171",Menyali,Sawan,Buleleng,Bali,81171,-8.1231115,115.166385
532,Kawitan Dalem Ketut Kresna Kepakisan,,"Bungkulan, Sawan, Buleleng, Bali, 81171",Bungkulan,Sawan,Buleleng,Bali,81171,-8.0794492,115.1590687
533,Kawitan Dalem Ketut Kresna Kepakisan,,"Bungkulan, Sawan, Buleleng, Bali, 81171",Bungkulan,Sawan,Buleleng,Bali,81171,-8.084623,115.1592718
534,Kawitan DALEM TARUKAN (petak),,"Jl. Bakbakan-Petak Kaja No.18, Petak Kaja, Gianyar, Gianyar, Bali, 80515",Petak Kaja,Gianyar,Gianyar,Bali,80515,-8.4451719,115.3201064
535,Kawitan DD KAYU SELEM DESA BANTANG,,"Bantang, Kintamani, Bangli, Bali, 80652",Bantang,Kintamani,Bangli,Bali,80652,-8.2044101,115.308128
536,Kawitan Dukuh Suladri Temple,,"Jl. Dewi Saraswati No.7, Bongkasa Pertiwi, Abiansemal, Badung, Bali, 80352",Bongkasa Pertiwi,Abiansemal,Badung,Bali,80352,-8.4872755,115.2405474
537,"Kawitan dukuh suladri umanyar,tamanbali,bangli",,"Jl. Merdeka No.46, Taman Bali, Bangli, Bangli, Bali, 80614",Taman Bali,Bangli,Bangli,Bali,80614,-8.4871161,115.3516978
538,"Kawitan I Dewa Pungakan Den Bencingah Satriya Tirta Harum, klungkung.",,"Jl. Semarapura-Karangasem, Paksebali, Kawan, Klungkung, Bali, 80761",Paksebali,Kawan,Klungkung,Bali,80761,-8.5324719,115.4147066
539,Kawitan I Gusti Tonjaha,,"Jl. Raya Bungkulan, Bungkulan, Sawan, Buleleng, Bali, 81171",Bungkulan,Sawan,Buleleng,Bali,81171,-8.0795202,115.1637337
540,Kawitan Manik Angkeran,,"Saba, Blahbatuh, Gianyar, Bali, 80581",Saba,Blahbatuh,Gianyar,Bali,80581,-8.5694492,115.2995805
541,Kawitan Mecutan BUNGKulan,,"Bungkulan, Sawan, Buleleng, Bali, 81171",Bungkulan,Sawan,Buleleng,Bali,81171,-8.090857,115.1602625
542,Kawitan Pasek Padang Subhadra,,"Banjar pinda, Gg. Gumitir No.desa, Saba, Blahbatuh, Gianyar, Bali, 80581",Saba,Blahbatuh,Gianyar,Bali,80581,-8.5430931,115.2974733
543,Kawitan Pasek Padang Subhadra,,"Gang gumitir Banjar pinda desa, Saba, Blahbatuh, Gianyar, Bali, 80581",Saba,Blahbatuh,Gianyar,Bali,80581,-8.597777,115.3011103
544,KAWITAN PURA ARYA KENCENG,,"Dusun.Kr.Majeti, Sesaot, Narmada, Lombok Barat, NTB, 83371",Sesaot,Narmada,Lombok Barat,NTB,83371,-8.5452505,116.2278437
545,Kayangan Dalem Desa Pakraman Munduk Bun,,"Sangketan, Penebel, Tabanan, Bali, 82152",Sangketan,Penebel,Tabanan,Bali,82152,-8.4288479,115.0913452
546,Kayangan jagat ?ventyklos,,"Jl. Mekarsari - Baturiti Bedugul, Baturiti, Baturiti, Tabanan, Bali, 82191",Baturiti,Baturiti,Tabanan,Bali,82191,-8.3435467,115.1891137
547,Kayehan Dedari,,"Duda Timur, Selat, Karangasem, Bali, 80862",Duda Timur,Selat,Karangasem,Bali,80862,-8.442506,115.499403
548,Kayuan Belalu,,"Belancan, Kintamani, Bangli, Bali, 80652",Belancan,Kintamani,Bangli,Bali,80652,-8.2908618,115.2957701
549,Kebayan wongaya gede delod yeh,,"Tunjuk, Tabanan, Tabanan, Bali, 82181",Tunjuk,Tabanan,Tabanan,Bali,82181,-8.4743481,115.1521777
550,Kebon Agung,,"Jl. Ida Ketut Jelantik, Culik, Abang, Karangasem, Bali, 80852",Culik,Abang,Karangasem,Bali,80852,-8.3459282,115.6145288
551,Kelapa Keramat (Sacred Coconut),,"Jl. Ngenjung Sari, Bakbakan, Gianyar, Gianyar, Bali, 80515",Bakbakan,Gianyar,Gianyar,Bali,80515,-8.5113509,115.3323098
552,Kelebutan Yehsah,,"dsn, Muncan, Selat, Karangasem, Bali, 80863",Muncan,Selat,Karangasem,Bali,80863,-8.4201155,115.4394567
553,Keluarga abasan,,"Unnamed Road, Lebih, Gianyar, Gianyar, Bali, 80515",Lebih,Gianyar,Gianyar,Bali,80515,-8.5723196,115.3502759
554,Kemalik Pura Sakti Sangiang,,"Langko, Lingsar, Lombok Barat, NTB 83371",Langko,Lingsar,Lombok Barat,NTB,83371,-8.559051,116.1635686
555,Kepah Sakti,,"Banjar Dinas megati kelod, Gn. Salak, Selemadeg Timur, Tabanan, Bali, 82162",Gn. Salak,Selemadeg Timur,Tabanan,Bali,82162,-8.483592,115.0643921
556,Keramat Mbah Temon,,"Unnamed Road, Gilimanuk, Melaya, Jembrana, Bali, 82252",Gilimanuk,Melaya,Jembrana,Bali,82252,-8.211046,114.4520619
557,Ketut merta,,"Jl. Gunung Lawu, Dusun Kebayanan Sragen Manggis, Sragen Wetan, Sragen, Sragen, Jawa Tengah",Sragen Wetan,Sragen,Sragen,Central Java,0,-8.5401283,115.369206
558,Khayangan Dalem Desa Pakeraman Galiukir,,"Kebon Padangan, Pupuan, Tabanan, Bali, 82163",Kebon Padangan,Pupuan,Tabanan,Bali,82163,-8.3808291,114.9862971
559,Khayangan Dalem Jegu,,"Jegu, Penebel, Tabanan, Bali, 82181",Jegu,Penebel,Tabanan,Bali,82181,-8.4484775,115.1308987
560,Khayangan Panti Pasek Tohjiwa Galiukir,,"Kebon Padangan, Pupuan, Tabanan, Bali, 82163",Kebon Padangan,Pupuan,Tabanan,Bali,82163,-8.3781404,114.9895825
561,Klibun Temple,,"Sakti, Nusapenida, Klungkung, Bali, 80771",Sakti,Nusapenida,Klungkung,Bali,80771,-8.7456592,115.4677806
562,Komang Suarmada,,"Dauh Pr Tamsn Sari, Busungbiu, Buleleng, Bali, 81154",Dauh Pr Tamsn Sari,Busungbiu,Buleleng,Bali,81154,-8.2646964,114.975173
563,"Komplek Perumahan Bayur Lestari Resident, Mengening Nyitdah, Kediri",,"Jl. Dedela Nata, Nyitdah, Kediri, Tabanan, Bali, 82121",Nyitdah,Kediri,Tabanan,Bali,82121,-8.5832119,115.1137403
564,KQ_Rungu Village,,"Jl. Sumita, Sumita, Gianyar, Gianyar, Bali, 80515",Sumita,Gianyar,Gianyar,Bali,80515,-8.4780825,115.3097183
565,Krama Pura Dharma Sari,,"Jl. Sapta Pesona, Pagutan Barat, Mataram, Kota Mataram, NTB, 83127",Pagutan Barat,Mataram,Kota Mataram,NTB,83127,-8.6075559,116.112569
566,Kubu Mangku Wayan Sujana,,"Jl. Mulioto, Buwit, Kediri, Tabanan, Bali, 82121",Buwit,Kediri,Tabanan,Bali,82121,-8.6004198,115.1272677
567,Kubu Tengah,,"Antiga Kelod, Manggis, Karangasem, Bali, 80871",Antiga Kelod,Manggis,Karangasem,Bali,80871,-8.5383342,115.49341
568,Kuil Ratu Kanjeng,,"Sumber Klampok, Gerokgak, Buleleng, Bali, 81155",Sumber Klampok,Gerokgak,Buleleng,Bali,81155,-8.0925794,114.5263697
569,Kunco Kubutambahan,,"Kubutambahan, Buleleng, Bali, 81171",0,Kubutambahan,Buleleng,Bali,81171,-8.0745115,115.1710714
570,"Kuranji Lembar,lombok barat",,"Lembar, Lombok Barat, NTB 83364",0,Lembar,Lombok Barat,NTB,83364,-8.6945162,116.0796269
571,Lapangan pengosekan,,"MAS, Ubud, Gianyar, Bali, 80571",MAS,Ubud,Gianyar,Bali,80571,-8.5284891,115.2629469
572,Lemukih Dalem Temple,,"Lemukih, Sawan, Buleleng, Bali, 81171",Lemukih,Sawan,Buleleng,Bali,81171,-8.1862437,115.1869671
573,Luhur Catur Kanda Pat Sari Temple,,"Jl. Antasura, Peguyangan Kaja, Denpasar Utara, Kota Denpasar, Bali, 80239",Peguyangan Kaja,Denpasar Utara,Kota Denpasar,Bali,80239,-8.6065158,115.2211865
574,Luhur dalem merta Beji jepun,,"Jl. Celuk Tuakilang, Denbantas, Tabanan, Tabanan, Bali, 82115",Denbantas,Tabanan,Tabanan,Bali,82115,-8.524707,115.124719
575,Luhur Dangin Bingin Temple,,"Jalan Tanah Lot, Beraban, Tabanan, Tabanan, Bali, 82121",Beraban,Tabanan,Tabanan,Bali,82121,-8.6029667,115.1051941
576,Luhur Pura Dalem Segening,Pura Dalem,"Beraban, Kediri, Tabanan, Bali, 82121",Beraban,Kediri,Tabanan,Bali,82121,-8.6283123,115.0930527
577,Mangurah Guwa Temple,,"Timuhun, Banjarangkan, Klungkung, Bali, 80752",Timuhun,Banjarangkan,Klungkung,Bali,80752,-8.4815986,115.3821794
578,Manik Bingin Family Temple,,"Jl. Werkudara No.5A, Delod Peken, Tabanan, Tabanan, Bali, 82121",Delod Peken,Tabanan,Tabanan,Bali,82121,-8.5409223,115.1290264
579,Maniktawang Kabupaten Gianyar,,"Jl. Erlangga, Jehem, Tembuku, Bangli, Bali, 80671",Jehem,Tembuku,Bangli,Bali,80671,-8.4527267,115.3803409
580,Marjepati Banjar prapat,,"Jl. Raya Toya Pakeh - Ped, Ped, Nusapenida, Klungkung, Bali, 80771",Ped,Nusapenida,Klungkung,Bali,80771,-8.6726096,115.4983184
581,Masceti Temple,,"Jl. Petitenget, Kerobokan Kelod, Kuta Utara, Badung, Bali",Kerobokan Kelod,Kuta Utara,Badung,Bali,0,-8.6818564,115.1524455
582,Mata Air Pura Beji Banjar Perangsada,,"Blahbatuh, Gianyar, Bali, 80581",0,Blahbatuh,Gianyar,Bali,80581,-8.5742949,115.3031719
583,Mekel Gede Petiga,,"De Krisna Garden, petiga semingan, Petiga, Marga, Tabanan, Bali, 82181",Petiga,Marga,Tabanan,Bali,82181,-8.4315397,115.1772278
584,Mekel kebayan ked,,"Taro, Tegallalang, Gianyar, Bali, 80561",Taro,Tegallalang,Gianyar,Bali,80561,-8.4034909,115.2811453
585,Mendra,,"Jl. Wirabhakti, Lembuak, Narmada, Lombok Barat, NTB, 83371",Lembuak,Narmada,Lombok Barat,NTB,83371,-8.5903999,116.2116962
586,Mengening Temple,,"Lemukih, Sawan, Buleleng, Bali, 81171",Lemukih,Sawan,Buleleng,Bali,81171,-8.1960486,115.1816987
587,Merajan Dadia Arya Kubon Tubuh,Merajan,"Unnamed Road, Satra, Kintamani, Bangli, Bali, 80652",Satra,Kintamani,Bangli,Bali,80652,-8.176738,115.2756897
588,Merajan Abang,Merajan,"Jl. Ida Kt Djelantik, Abang, Karangasem, Bali, 80852",0,Abang,Karangasem,Bali,80852,-8.3862821,115.6028213
589,MERAJAN AGENG ARYA KENCENG TEGEH KORI JERO BANYU-CAMPAH,Merajan,"Jl. Semarapura-Karangasem, Telaga Tawang, Sidemen, Karangasem, Bali, 80864",Telaga Tawang,Sidemen,Karangasem,Bali,80864,-8.4842628,115.4464598
590,Merajan Ageng Bendesa Aban Bresela,Merajan,"Beresela, Payangan, Gianyar, Bali, 80572",Beresela,Payangan,Gianyar,Bali,80572,-8.4251468,115.2724144
591,Merajan Ageng Bhujangga Waisnawa,Merajan,"Jl. Tangguntiti, Beraban, Selemadeg Timur, Tabanan, Bali, 82161",Beraban,Selemadeg Timur,Tabanan,Bali,82161,-8.5574917,115.0431179
592,Merajan ageng geriya celit,Merajan,"Pering Sari, Selat, Karangasem, Bali, 80862",Pering Sari,Selat,Karangasem,Bali,80862,-8.4292125,115.4708888
593,Merajan Ageng Grya Gede Andakasa Giri Kemenuh (Brahmana Kemenuh),Merajan,"Jl. Giri Wisma No.14, Dawan Kaler, Dawan, Klungkung, Bali, 80761",Dawan Kaler,Dawan,Klungkung,Bali,80761,-8.5289722,115.4444814
594,MERAJAN AGENG GUSTI BENDESA,Merajan,"Jl. Air Terjun Dedari, Taman Bali, Bangli, Bangli, Bali, 80614",Taman Bali,Bangli,Bangli,Bali,80614,-8.501158,115.354323
595,"Merajan Ageng Gusti Mambal, Bungkulan",Merajan,"Bungkulan, Sawan, Buleleng, Bali, 81171",Bungkulan,Sawan,Buleleng,Bali,81171,-8.0796608,115.1589327
596,Merajan Ageng I Dewa Pesawahan,Merajan,"Banjar, Buleleng, Bali, 81152",0,Banjar,Buleleng,Bali,81152,-8.1989018,114.9640031
597,Merajan Ageng Kebayan Subamia,Merajan,"Jl. Ambal Ambal, Subamia, Tabanan, Tabanan, Bali, 82115",Subamia,Tabanan,Tabanan,Bali,82115,-8.5026361,115.1265371
598,Merajan Ageng Kemenuh,Merajan,"Jl. Ir. Sutami, Kemenuh, Sukawati, Gianyar, Bali, 80582",Kemenuh,Sukawati,Gianyar,Bali,80582,-8.5671325,115.2866026
599,Merajan Ageng Maha Warga Bhujangga Waisnawa,Merajan,"Unnamed Road, Penebel, Tabanan, Bali, 82181",0,Penebel,Tabanan,Bali,82181,-8.4168407,115.1491607
600,Merajan ageng pasek kayu selem batupalah,Merajan,"Banjar batupalah, Satra, Kintamani, Bangli, Bali, 80652",Satra,Kintamani,Bangli,Bali,80652,-8.1978104,115.2787054
601,Merajan Ageng Puri Taman Sekar,Merajan,"Jl. Khayangan, Yeh Sumbul, Mendoyo, Jembrana, Bali, 82261",Yeh Sumbul,Mendoyo,Jembrana,Bali,82261,-8.3921116,114.8013357
602,Merajan Ageng Wanasari,Merajan,"Karangasem, Karangasem, Bali, 80811",0,Karangasem,Karangasem,Bali,80811,-8.428639,115.6058569
603,Merajan Agung,Merajan,"Jl. Batukaru No.52, Denbantas, Tabanan, Tabanan, Bali, 82115",Denbantas,Tabanan,Tabanan,Bali,82115,-8.5188282,115.1296715
604,Merajan Agung (Satria Taman Bali) Desa Selat,Merajan,"Samplangan, Gianyar, Bali, 80512",0,Samplangan,Gianyar,Bali,80512,-8.5261225,115.3344919
605,Merajan Agung Arya Kenceng,Merajan,"Batuaji, Kerambitan, Tabanan, Bali, 82115",Batuaji,Kerambitan,Tabanan,Bali,82115,-8.5167895,115.1089485
606,Merajan Agung Arya Kenceng Tegeh Kori Sading,Merajan,"Sading, Mengwi, Badung, Bali, 80352",Sading,Mengwi,Badung,Bali,80352,-8.5977471,115.1955453
607,MERAJAN AGUNG ARYA MADE TUKAD TAMPAKSIRING,Merajan,"Tampaksiring, Gianyar, Bali, 80552",0,Tampaksiring,Gianyar,Bali,80552,-8.4266469,115.3060772
608,Merajan Agung Arya Sentong Payangan,Merajan,"Melinggih, Payangan, Gianyar, Bali, 80572",Melinggih,Payangan,Gianyar,Bali,80572,-8.4295764,115.2447689
609,Merajan Agung Arya Sentong Penyaringan,Merajan,"Jl. Kresna, Penyaringan, Mendoyo, Jembrana, Bali, 82261",Penyaringan,Mendoyo,Jembrana,Bali,82261,-8.3784555,114.7079596
610,"merajan agung arya tegeh kori, subamia, tabanan",Merajan,"Subamia, Tabanan, Wanasari, Tabanan, Tabanan, Bali, 82115",Subamia,Wanasari,Tabanan,Bali,82115,-8.5029007,115.126479
611,"Merajan Agung Babakan, Selemadeg",Merajan,"Selemadeg, Tabanan, Bali",0,Selemadeg,Tabanan,Bali,0,-8.5001101,115.0412687
612,Merajan Agung Bakbakan,Merajan,"Bakbakan, Gianyar, Bali, 80515",0,Bakbakan,Gianyar,Bali,80515,-8.5100027,115.3203693
613,Merajan Agung Batuaji,Merajan,"Jl. Raya Batuaji, Batuaji, Kerambitan, Tabanan, Bali, 82115",Batuaji,Kerambitan,Tabanan,Bali,82115,-8.5196677,115.1083225
614,Merajan Agung Batursari.,Merajan,"Jl. Manggis I, Bitera, Gianyar, Bali, 80515",0,Bitera,Gianyar,Bali,80515,-8.5318887,115.3095181
615,Merajan Agung Banjar Abasan,Merajan,"abasan singapadu, Singapadu, Sukawati, Gianyar, Bali, 80582",Singapadu,Sukawati,Gianyar,Bali,80582,-8.5869853,115.2548912
616,Merajan Agung Dadia SNKK I Gusti N Darna,Merajan,"Unnamed Road, Bondalem, Tejakula, Buleleng, Bali, 81173",Bondalem,Tejakula,Buleleng,Bali,81173,-8.1155117,115.3147651
617,Merajan agung dadya panji wayabia,Merajan,"Bungkulan, Sawan, Buleleng, Bali, 81171",Bungkulan,Sawan,Buleleng,Bali,81171,-8.0700785,115.1563036
618,Merajan Agung Dalem Pemayun,Merajan,"Kampung Kusamba, Dawan, Klungkung, Bali, 80761",Kampung Kusamba,Dawan,Klungkung,Bali,80761,-8.5610414,115.4458567
619,Merajan Agung Dalem Pemayun Cagaan,Merajan,"Jl. Raya Pejeng Kangin, Pejeng Kangin, Tampaksiring, Gianyar, Bali, 80552",Pejeng Kangin,Tampaksiring,Gianyar,Bali,80552,-8.4938605,115.2976687
620,Merajan agung dalem pemayun puri ageng let tohpati Klungkung,Merajan,"Tohpati, Banjarangkan, Klungkung, Bali, 80752",Tohpati,Banjarangkan,Klungkung,Bali,80752,-8.463183,115.3800531
621,Merajan Agung Dewa Satria Dalem Pegedangan,Merajan,"desa paksa bali, Paksebali, Klungkung, Klungkung, Bali, 80761",Paksebali,Klungkung,Klungkung,Bali,80761,-8.5288071,115.4181284
622,Merajan Agung Dewa Tanggahan,Merajan,"Jl. Raya Tulikup No.16, Tulikup, Gianyar, Gianyar, Bali, 80515",Tulikup,Gianyar,Gianyar,Bali,80515,-8.5497689,115.3568945
623,Merajan Agung Dukuh Sepi,Merajan,"Jl. Raya Perasi No.1, Subagan, Karangasem, Karangasem, Bali, 80811",Subagan,Karangasem,Karangasem,Bali,80811,-8.4834822,115.6002011
624,Merajan Agung Geria Kemenuh Batan Manggis Singarata,Merajan,"Jl. Gn. Agung Besakih, Rendang, Karangasem, Bali, 80863",0,Rendang,Karangasem,Bali,80863,-8.4225791,115.4197684
625,Merajan Agung I Dewa Sidan,Merajan,"Dusun Kangin, Satra, Klungkung, Klungkung, Bali, 80716",Satra,Klungkung,Klungkung,Bali,80716,-8.5561256,115.3963836
626,MERAJAN AGUNG I GUSTI GDE BANDEM,Merajan,"Bebandem, Karangasem, Bali, 80861",0,Bebandem,Karangasem,Bali,80861,-8.4338604,115.5626502
627,Merajan Agung Ida I Dewa Anggungan,Merajan,"Jl. Penataran, Gelgel, Klungkung, Klungkung, Bali, 80716",Gelgel,Klungkung,Klungkung,Bali,80716,-8.5548214,115.4045388
628,"Merajan Agung Ida I Dewa Gedong Artha, Besang Kangin Klungkung",Merajan,"Semarapura Kaja, Klungkung, Klungkung, Bali, 80711",Semarapura Kaja,Klungkung,Klungkung,Bali,80711,-8.5247778,115.3987042
629,Merajan Agung Ida I Dewa Pagedangan,Merajan,"Banjar Jadi Babakan, Banjar Anyar, Kediri, Tabanan, Bali, 82123",Banjar Anyar,Kediri,Tabanan,Bali,82123,-8.5193964,115.1463169
630,Merajan agung jagapati,Merajan,"Jagapati, Abiansemal, Badung, Bali, 80352",Jagapati,Abiansemal,Badung,Bali,80352,-8.5962126,115.2416203
631,Merajan Agung Jeroan Gede Sumita,Merajan,"Banjar Tengah, Sumita, Gianyar, Gianyar, Bali, 80515",Sumita,Gianyar,Gianyar,Bali,80515,-8.4698699,115.3087526
632,Merajan Agung Jeroan Lembongan,Merajan,"Jl. Raya Lembongan, Jungutbatu, Nusapenida, Klungkung, Bali, 80771",Jungutbatu,Nusapenida,Klungkung,Bali,80771,-8.6894029,115.4410447
633,Merajan agung kesian,Merajan,"Lebih, Gianyar, Bali, 80515",0,Lebih,Gianyar,Bali,80515,-8.5641917,115.3406431
634,Merajan Agung Koripan,Merajan,"Jl. Maruti, Keramas, Blahbatuh, Gianyar, Bali, 80581",Keramas,Blahbatuh,Gianyar,Bali,80581,-8.5699926,115.3269591
635,Merajan Agung Ksatria Sukahet Dalem Segening Klungkung,Merajan,"Semarapura Kaja, Klungkung, Klungkung, Bali, 80712",Semarapura Kaja,Klungkung,Klungkung,Bali,80712,-8.525569,115.3972987
636,Merajan Agung & Pura Kawitan Arya Wang Bang Pinatih Sulangai Petang,Merajan,"Sulangai, Petang, Badung, Bali, 80353",Sulangai,Petang,Badung,Bali,80353,-8.3580157,115.2138648
637,Merajan agung manik angkeran bitera,Merajan,"Unnamed Road, Bitera, Gianyar, Gianyar, Bali, 80515",Bitera,Gianyar,Gianyar,Bali,80515,-8.5353973,115.3122445
638,Merajan agung najsa,Merajan,"Jl. Raya Timuhun, Bangbang, Tembuku, Bangli, Bali, 80671",Bangbang,Tembuku,Bangli,Bali,80671,-8.4573355,115.3990012
639,Merajan Agung Padang Aji,Merajan,"Amerta Bhuana, Selat, Karangasem, Bali, 80862",Amerta Bhuana,Selat,Karangasem,Bali,80862,-8.4250287,115.4612778
640,Merajan Agung Pakusara,Merajan,"Jalan Banjar Sangging Serokadan, Abuan, Susut, Bangli, Bali, 80661",Abuan,Susut,Bangli,Bali,80661,-8.462572,115.3341318
641,Merajan Agung Pangeran Asak,Merajan,"Jl. Asak, Pertima, Karangasem, Karangasem, Bali, 80811",Pertima,Karangasem,Karangasem,Bali,80811,-8.471534,115.5900372
642,Merajan Agung Pasek Batukaru,Merajan,"Jl. Jurusan Kerambitan Batukaru, Wongaya Gede, Penebel, Tabanan, Bali, 82152",Wongaya Gede,Penebel,Tabanan,Bali,82152,-8.3948823,115.1130149
643,Merajan Agung Pasek Gelgel,Merajan,"Sombang,, Tukadaya, Melaya, Jembrana, Bali, 82252",Tukadaya,Melaya,Jembrana,Bali,82252,-8.2878304,114.555823
644,Merajan Agung pasek gelgel Alasharum,Merajan,"Jalan Raya Alas Harum, Alas Harum, Bungkulan, Sawan, Bungkulan, Sawan, Buleleng, Bali, 81171",Bungkulan,Sawan,Buleleng,Bali,81171,-8.0812623,115.1665702
645,"Merajan Agung Pasek Gelgel Banjar Perangsada, Blahbatuh",Merajan,"Pering, Blahbatuh, Gianyar, Bali, 80581",Pering,Blahbatuh,Gianyar,Bali,80581,-8.5796882,115.3006212
646,Merajan Agung Pasek Gelgel Jempeng,Merajan,"Taman, Abiansemal, Badung, Bali, 80352",Taman,Abiansemal,Badung,Bali,80352,-8.4618158,115.229553
647,Merajan Agung Pasek Gelgel Penarukan,Merajan,"Unnamed Road, Penarukan, Kerambitan, Tabanan, Bali, 82161",Penarukan,Kerambitan,Tabanan,Bali,82161,-8.558043,115.0735489
648,Merajan Agung Pasek Pendem Kangin,Merajan,"Br, Pendem, Pejukutan, Nusapenida, Klungkung, Bali, 80771",Pejukutan,Nusapenida,Klungkung,Bali,80771,-8.7654073,115.5936991
649,Merajan Agung Pasemetonan Pratisentana Nararya Dalem Benculuk Tegeh Kori,Merajan,"Kalianget, Seririt, Kalianget, Buleleng, Buleleng, Bali, 81152",Kalianget,Buleleng,Buleleng,Bali,81152,-8.2011451,114.9585242
650,"Merajan Agung Penyarikan, Wongaya Gede",Merajan,"Banjar Wongaya Kelod, Wongaya Gede, Penebel, Tabanan, Bali, 82152",Wongaya Gede,Penebel,Tabanan,Bali,82152,-8.3944297,115.1128092
651,Merajan Agung Prasasti Kawitan Treh Satria Dhalem Sri Aji Kresna Kepakisan,Merajan,"Tojan, Klungkung, Klungkung, Bali, 80716",Tojan,Klungkung,Klungkung,Bali,80716,-8.5511402,115.4023574
652,Merajan Agung Pratisentana Sri Nararya Kenceng,Merajan,"Lingkungan Pangkung Gondang, Sangkaragung, Jembrana, Jembrana, Bali, 82251",Sangkaragung,Jembrana,Jembrana,Bali,82251,-8.3696324,114.6486868
653,Merajan Agung Puri Agung Gianyar,Merajan,"Gianyar, Bali, 80511",0,0,Gianyar,Bali,80511,-8.5406349,115.3305181
654,Merajan Agung Puri Bonbiyu,Merajan,"Jl. Pantai Saba, Saba, Blahbatuh, Gianyar, Bali, 80581",Saba,Blahbatuh,Gianyar,Bali,80581,-8.5810772,115.2924079
655,MERAJAN AGUNG Puri Bungbungan,Merajan,"Jl. Raya Bungbungan No.12, Bungbungan, Banjarangkan, Klungkung, Bali, 80752",Bungbungan,Banjarangkan,Klungkung,Bali,80752,-8.4760419,115.3762521
656,Merajan Agung Puri Kanginan Blahbatuh,Merajan,"Blahbatuh, Gianyar, Bali, 80581",0,Blahbatuh,Gianyar,Bali,80581,-8.5653846,115.3024585
657,Merajan Agung Puri Kelolan Serongga,Merajan,"Unnamed Road, Serongga, Gianyar, Gianyar, Bali, 80515",Serongga,Gianyar,Gianyar,Bali,80515,-8.5583706,115.3349521
658,Merajan Agung Puri Kusamba,Merajan,"Puri, Kp. Kusamba, Dawan, Klungkung, Bali, 80761",Kp. Kusamba,Dawan,Klungkung,Bali,80761,-8.5609039,115.449577
659,Merajan Agung Puri Penarungan,Merajan,"Penarungan, Mengwi, Badung, Bali, 80352",Penarungan,Mengwi,Badung,Bali,80352,-8.5397391,115.1987538
660,Merajan Agung Satria Dalem Kaleran,Merajan,"Banjarangkan, Klungkung, Bali, 80752",0,Banjarangkan,Klungkung,Bali,80752,-8.5487168,115.3684565
661,Merajan Agung Satria Dalem Kaleran Klungkung,Merajan,"Jl. Pattimura, Semarapura Tengah, Klungkung, Klungkung, Bali, 80761",Semarapura Tengah,Klungkung,Klungkung,Bali,80761,-8.532644,115.4015678
662,Merajan Agung Satria Dalem Pemayun,Merajan,"Jl. Banjar Timbul-Pupuan, Pupuan, Tegallalang, Gianyar, Bali, 80561",Pupuan,Tegallalang,Gianyar,Bali,80561,-8.3878003,115.3070565
663,Merajan Agung Satria Dalem Sri Arya Sentong,Merajan,"Banjar Belatung, Senganan, Penebel, Tabanan, Bali, 82191",Senganan,Penebel,Tabanan,Bali,82191,-8.3852373,115.1667183
664,Merajan Agung Satria I Dewa Bangli,Merajan,"Jl. Raya Desa Kenderan, Kenderan, Tegallalang, Gianyar, Bali, 80561",Kenderan,Tegallalang,Gianyar,Bali,80561,-8.4536683,115.2883967
665,Merajan Agung Satria I Dewa Tianyar,Merajan,"Tembuku, Bangli, Bali, 80671",0,Tembuku,Bangli,Bali,80671,-8.4226109,115.3838189
666,Merajan Agung Satria Taman Bali Sanding,Merajan,"Jl. Raya Tampaksiring, Sanding, Tampaksiring, Gianyar, Bali, 80552",Sanding,Tampaksiring,Gianyar,Bali,80552,-8.4674212,115.2951354
667,Merajan Agung Sema Agung,Merajan,"Tusan, Banjarangkan, Klungkung, Bali, 80752",Tusan,Banjarangkan,Klungkung,Bali,80752,-8.5455937,115.3779982
668,Merajan Agung Sirarya Kuthawaringin,Merajan,"Jl. Rama, Mendoyo Dangin Tukad, Mendoyo, Jembrana, Bali, 82261",Mendoyo Dangin Tukad,Mendoyo,Jembrana,Bali,82261,-8.3773039,114.6629002
669,Merajan Agung Sri Kresna Kepakisan,Merajan,"Semarapura Kaja, Klungkung, Klungkung, Bali, 80711",Semarapura Kaja,Klungkung,Klungkung,Bali,80711,-8.5247513,115.3994483
670,Merajan Agung Suklan,Merajan,"Unnamed Road, Pejukutan, Nusapenida, Klungkung, Bali, 80771",Pejukutan,Nusapenida,Klungkung,Bali,80771,-8.7775737,115.6086236
671,Merajan Agung Sumerta,Merajan,"Jl. kenyeri gang soka, Sumerta Kaja, Denpasar Timur, Kota Denpasar, Bali, 80236",Sumerta Kaja,Denpasar Timur,Kota Denpasar,Bali,80236,-8.647671,115.2295661
672,Merajan Agung Tatag,Merajan,"Jl. Raya Taro, Taro, Tegallalang, Gianyar, Bali, 80561",Taro,Tegallalang,Gianyar,Bali,80561,-8.4033559,115.2760451
